City_ID,City,Lat,Lng,Max Temp,Humidity,Cloudiness,Wind Speed,Country,Date
0,Mar Del Plata,-38.0023,-57.5575,285.16,94,90,8.23,AR,2021-09-08 06:40:25
1,Tasiilaq,65.6145,-37.6368,278.24,57,0,5.28,GL,2021-09-08 06:38:41
2,Nanortalik,60.1432,-45.2371,280.43,65,99,1.66,GL,2021-09-08 06:41:00
3,Ihosy,-22.4,46.1167,297.6,42,0,1.98,MG,2021-09-08 06:47:03
4,Vardo,70.3705,31.1107,278.14,75,20,1.54,NO,2021-09-08 06:47:03
5,Tres Arroyos,-38.3739,-60.2798,282.42,96,100,8.35,AR,2021-09-08 06:47:04
6,Port Elizabeth,-33.918,25.5701,287.09,71,0,2.06,ZA,2021-09-08 06:40:46
7,Pichayevo,53.2363,42.2032,287.91,50,100,6.46,RU,2021-09-08 06:47:04
8,La Rioja,42.25,-2.5,290.64,62,70,1.29,ES,2021-09-08 06:47:05
9,Narsaq,60.9167,-46.05,279.27,59,91,1.48,GL,2021-09-08 06:40:34
10,Beachwood,41.4645,-81.5087,295.88,67,40,2.24,US,2021-09-08 06:43:23
11,Umm Kaddadah,13.6017,26.6876,302.6,53,100,3.71,SD,2021-09-08 06:42:42
12,Zurrieq,35.8311,14.4742,297.57,64,20,1.03,MT,2021-09-08 06:47:05
13,Arraial Do Cabo,-22.9661,-42.0278,293.67,80,97,10.02,BR,2021-09-08 06:40:26
14,Upernavik,72.7868,-56.1549,273.42,83,100,6.7,GL,2021-09-08 06:40:48
15,Busselton,-33.65,115.3333,293.75,85,71,7.33,AU,2021-09-08 06:40:41
16,Bilma,18.6853,12.9164,304.62,40,77,2.05,NE,2021-09-08 06:43:21
17,Nouadhibou,20.931,-17.0347,295.15,86,14,3.88,MR,2021-09-08 06:41:18
18,Nova Vicosa,-17.8919,-39.3719,295.56,86,100,4.43,BR,2021-09-08 06:46:10
19,Kulhudhuffushi,6.6221,73.07,301.25,71,100,6.13,MV,2021-09-08 06:41:26
20,Rawson,-43.3002,-65.1023,282.55,89,4,1.44,AR,2021-09-08 06:42:08
21,Jamestown,42.097,-79.2353,294.92,79,40,2.24,US,2021-09-08 06:40:26
22,Brae,60.3964,-1.353,288.1,96,99,3.84,GB,2021-09-08 06:43:09
23,Mahebourg,-20.4081,57.7,294.96,88,75,9.77,MU,2021-09-08 06:40:29
24,Berga,60.392,5.328,289.86,95,90,4.63,NO,2021-09-08 06:47:07
25,Sao Geraldo Do Araguaia,-6.4006,-48.555,297.23,77,3,1.46,BR,2021-09-08 06:47:08
26,Fairmont,39.4851,-80.1426,293.8,89,23,1.99,US,2021-09-08 06:43:53
27,Cape Town,-33.9258,18.4232,286.54,95,20,0.89,ZA,2021-09-08 06:36:25
28,Ushuaia,-54.8,-68.3,283.96,46,75,6.17,AR,2021-09-08 06:40:03
29,Victoria,22.2855,114.1577,306.46,72,16,4.25,HK,2021-09-08 06:39:04
30,Macusani,-14.0833,-70.4333,276.19,84,62,1.84,PE,2021-09-08 06:47:09
31,Longyearbyen,78.2186,15.6401,275.06,69,40,1.03,SJ,2021-09-08 06:39:59
32,Sao Felix Do Xingu,-6.6447,-51.995,294.76,94,9,0.89,BR,2021-09-08 06:40:45
33,Hithadhoo,-0.6,73.0833,301.42,71,37,2.77,MV,2021-09-08 06:40:45
34,Lebu,-37.6167,-73.65,280.46,83,0,2.05,CL,2021-09-08 06:40:23
35,Talnakh,69.4865,88.3972,284.54,57,100,1.34,RU,2021-09-08 06:42:01
36,Eydhafushi,5.1033,73.0708,301.36,70,98,5.33,MV,2021-09-08 06:47:10
37,Paracuru,-3.41,-39.0306,300.16,75,98,6.65,BR,2021-09-08 06:47:10
38,Paragominas,-2.9667,-47.4833,294.03,99,24,1.22,BR,2021-09-08 06:47:11
39,Hermanus,-34.4187,19.2345,285.32,75,0,1.32,ZA,2021-09-08 06:38:42
40,Ribeira Grande,38.5167,-28.7,294.37,83,40,2.06,PT,2021-09-08 06:40:27
41,Hoyerswerda,51.4333,14.25,288.98,64,49,2.27,DE,2021-09-08 06:47:11
42,Saint-Augustin,51.226,-58.6502,286.63,88,99,6.26,CA,2021-09-08 06:41:25
43,Bengkulu,-3.8004,102.2655,298.91,85,100,3.17,ID,2021-09-08 06:47:12
44,Saint Anthony,45.0205,-93.218,290.68,66,1,1.34,US,2021-09-08 06:41:00
45,Touros,-5.1989,-35.4608,296.65,89,48,4.46,BR,2021-09-08 06:41:29
46,Mpika,-11.8343,31.4529,296.87,37,0,5.09,ZM,2021-09-08 06:40:41
47,Qaanaaq,77.484,-69.3632,262.57,69,33,4.11,GL,2021-09-08 06:40:30
48,Dikson,73.5069,80.5464,279.29,83,100,4.23,RU,2021-09-08 06:41:17
49,Ostrovnoy,68.0531,39.5131,278.96,70,96,1.24,RU,2021-09-08 06:41:25
50,La Macarena,2.1837,-73.7849,294.07,99,100,0.74,CO,2021-09-08 06:47:13
51,Souillac,-20.5167,57.5167,295.02,88,75,9.77,MU,2021-09-08 06:41:16
52,Saint-Leu,-21.15,55.2833,297.63,61,35,1.4,RE,2021-09-08 06:47:14
53,Aksarka,66.5606,67.7975,281.71,56,94,5.83,RU,2021-09-08 06:40:50
54,East London,-33.0153,27.9116,286.67,71,0,2.57,ZA,2021-09-08 06:40:34
55,Krasnoborsk,61.5598,45.934,283.66,88,89,3.56,RU,2021-09-08 06:47:14
56,Tabou,4.423,-7.3528,297.71,90,27,1.62,CI,2021-09-08 06:42:13
57,Lukovetskiy,64.2956,41.9211,281.14,97,100,3.04,RU,2021-09-08 06:43:08
58,Punta Arenas,-53.15,-70.9167,282.21,57,0,5.66,CL,2021-09-08 06:40:30
59,Havelock,34.8791,-76.9013,298.68,95,39,1.44,US,2021-09-08 06:42:20
60,Mamlyutka,54.9375,68.5394,287.16,41,31,4.51,KZ,2021-09-08 06:47:15
61,Sinop,41.7711,34.8709,288.39,53,0,1.98,TR,2021-09-08 06:47:16
62,Namibe,-15.1961,12.1522,292.44,87,68,1.24,AO,2021-09-08 06:42:06
63,Caravelas,-17.7125,-39.2481,295.56,86,91,3.55,BR,2021-09-08 06:41:24
64,Elizabeth City,36.2946,-76.2511,297.58,95,75,0.0,US,2021-09-08 06:47:16
65,Bredasdorp,-34.5322,20.0403,279.77,93,7,0.51,ZA,2021-09-08 06:40:29
66,Potiskum,11.7091,11.0694,297.45,73,10,3.99,NG,2021-09-08 06:47:17
67,Vila Velha,-20.3297,-40.2925,295.12,88,75,1.54,BR,2021-09-08 06:41:09
68,Saint-Philippe,-21.3585,55.7679,297.92,68,44,6.28,RE,2021-09-08 06:40:38
69,Klaksvik,62.2266,-6.589,283.66,93,100,4.09,FO,2021-09-08 06:40:50
70,Nantucket,41.2835,-70.0995,294.87,86,1,3.6,US,2021-09-08 06:42:40
71,Faya,18.3851,42.4509,299.44,12,95,6.92,SA,2021-09-08 06:42:02
72,Port Alfred,-33.5906,26.891,289.33,51,1,3.2,ZA,2021-09-08 06:40:35
73,Misratah,32.3754,15.0925,299.15,61,6,4.1,LY,2021-09-08 06:47:18
74,Maniitsoq,65.4167,-52.9,277.71,79,77,3.89,GL,2021-09-08 06:47:19
75,Gobabis,-22.45,18.9667,290.01,9,5,3.74,NA,2021-09-08 06:47:19
76,Kruisfontein,-34.0033,24.7314,285.86,46,17,4.0,ZA,2021-09-08 06:41:39
77,Richards Bay,-28.783,32.0377,289.92,77,96,2.17,ZA,2021-09-08 06:41:36
78,Mantenopolis,-18.8625,-41.1228,291.2,85,78,1.97,BR,2021-09-08 06:47:20
79,Taoudenni,22.6783,-3.9836,309.02,10,48,2.76,ML,2021-09-08 06:42:44
80,Severnoye,56.3491,78.3619,289.02,49,100,0.87,RU,2021-09-08 06:47:20
81,Oshkosh,44.0247,-88.5426,289.19,74,1,0.89,US,2021-09-08 06:47:21
82,Male,4.1748,73.5089,304.12,66,75,4.12,MV,2021-09-08 06:43:14
83,Tamsweg,47.1281,13.811,287.28,76,7,2.34,AT,2021-09-08 06:47:21
84,Yazman,29.1212,71.7446,312.15,35,78,4.47,PK,2021-09-08 06:47:21
85,Novi Ligure,44.7608,8.7896,296.26,83,13,1.86,IT,2021-09-08 06:47:22
86,Nerekhta,57.4588,40.5747,285.09,91,100,5.87,RU,2021-09-08 06:47:22
87,Ilulissat,69.2167,-51.1,274.16,69,75,1.54,GL,2021-09-08 06:41:12
88,Dakar,14.6937,-17.4441,299.22,89,0,0.0,SN,2021-09-08 06:43:10
89,Gbarnga,6.9956,-9.4722,294.3,100,75,0.3,LR,2021-09-08 06:47:23
90,Tome,-36.6167,-72.95,278.49,83,0,2.29,CL,2021-09-08 06:47:23
91,Olivet,47.8622,1.8991,291.47,79,0,0.89,FR,2021-09-08 06:47:23
92,Cidreira,-30.1811,-50.2056,290.59,92,100,13.89,BR,2021-09-08 06:41:13
93,Balkhash,46.844,74.9804,303.49,15,0,5.0,KZ,2021-09-08 06:42:52
94,Virginia Beach,36.8529,-75.978,297.05,91,20,0.0,US,2021-09-08 06:38:53
95,Nuuk,64.1835,-51.7216,279.49,87,90,0.0,GL,2021-09-08 06:42:16
96,Ghugus,19.9333,79.1333,300.8,79,86,5.26,IN,2021-09-08 06:47:24
97,Adre,13.4667,22.2,298.98,71,28,2.77,TD,2021-09-08 06:43:29
98,Sao Filipe,14.8961,-24.4956,298.89,84,100,5.13,CV,2021-09-08 06:40:24
99,Qasigiannguit,68.8193,-51.1922,274.29,75,21,1.85,GL,2021-09-08 06:40:49
100,Quatre Cocos,-20.2078,57.7625,294.87,63,58,7.98,MU,2021-09-08 06:41:56
101,Praia Da Vitoria,38.7333,-27.0667,294.13,88,75,2.46,PT,2021-09-08 06:47:25
102,Aller,43.1187,-5.5839,289.25,84,21,2.04,ES,2021-09-08 06:47:26
103,Wells,51.2079,-2.649,293.56,78,100,4.58,GB,2021-09-08 06:47:26
104,Torbay,47.6666,-52.7314,288.47,96,75,6.69,CA,2021-09-08 06:40:24
105,Codrington,-38.2667,141.9667,289.45,64,5,5.02,AU,2021-09-08 06:41:32
106,Cockburn Town,21.4612,-71.1419,301.12,74,0,5.67,TC,2021-09-08 06:40:58
107,Manyana,-23.4,21.7167,290.6,13,0,4.0,BW,2021-09-08 06:47:27
108,Kismayo,-0.3582,42.5454,300.59,67,100,7.59,SO,2021-09-08 06:47:27
109,San Lorenzo,-25.3333,-57.5333,295.67,88,90,5.66,PY,2021-09-08 06:40:24
110,Clyde River,70.4692,-68.5914,271.88,79,100,2.76,CA,2021-09-08 06:40:54
111,Yadrin,55.9405,46.2062,284.38,86,100,5.59,RU,2021-09-08 06:47:28
112,Boffa,10.1667,-14.0333,296.41,96,23,1.51,GN,2021-09-08 06:47:28
113,Hendek,40.7994,30.7481,288.33,53,1,1.56,TR,2021-09-08 06:47:29
114,Balkanabat,39.5108,54.3671,301.02,32,0,3.24,TM,2021-09-08 06:43:15
115,Chuy,-33.6971,-53.4616,286.49,95,100,9.15,UY,2021-09-08 06:40:28
116,Diamantino,-14.4086,-56.4461,299.31,50,26,1.76,BR,2021-09-08 06:47:29
117,Carnarvon,-24.8667,113.6333,298.56,41,5,4.96,AU,2021-09-08 06:41:43
118,Koani,-6.1333,39.2833,298.94,78,75,5.14,TZ,2021-09-08 06:47:30
119,Cacheu,12.2706,-16.1658,298.2,91,100,1.8,GW,2021-09-08 06:47:30
120,Muros,42.7762,-9.0603,293.28,90,90,5.74,ES,2021-09-08 06:40:38
121,Neyshabur,36.2133,58.7958,301.03,19,0,1.65,IR,2021-09-08 06:47:31
122,Dingle,10.9995,122.6711,301.43,81,91,5.68,PH,2021-09-08 06:40:32
123,Saint George,37.1041,-113.5841,304.48,14,1,0.89,US,2021-09-08 06:39:33
124,Nikolsk,53.7189,46.0712,282.98,85,100,5.87,RU,2021-09-08 06:47:31
125,Laguna,38.421,-121.4238,303.18,47,1,0.45,US,2021-09-08 06:42:35
126,Belmonte,-15.8631,-38.8828,294.43,92,22,2.41,BR,2021-09-08 06:43:16
127,Laje,-10.1833,-40.9667,291.24,92,36,3.76,BR,2021-09-08 06:47:32
128,Georgetown,5.4112,100.3354,300.12,87,20,0.89,MY,2021-09-08 06:37:48
129,Los Llanos De Aridane,28.6585,-17.9182,296.55,37,20,4.63,ES,2021-09-08 06:37:15
130,Salinopolis,-0.6136,-47.3561,298.95,82,37,4.41,BR,2021-09-08 06:43:06
131,Caucasia,7.9865,-75.1935,296.06,96,100,1.22,CO,2021-09-08 06:47:33
132,Hambantota,6.1241,81.1185,305.34,70,20,7.2,LK,2021-09-08 06:40:36
133,Bonavista,48.6499,-53.1147,289.33,88,7,8.14,CA,2021-09-08 06:47:33
134,Coihaique,-45.5752,-72.0662,279.12,75,0,1.03,CL,2021-09-08 06:41:32
135,Bubaque,11.2833,-15.8333,299.63,85,100,4.0,GW,2021-09-08 06:40:42
136,Oranjemund,-28.55,16.4333,291.19,29,0,4.03,NA,2021-09-08 06:47:34
137,Malakal,9.5334,31.6605,299.46,77,100,1.45,SS,2021-09-08 06:47:34
138,Pisco,-13.7,-76.2167,289.83,77,8,1.03,PE,2021-09-08 06:44:58
139,Acari,-15.4311,-74.6158,289.44,88,74,2.42,PE,2021-09-08 06:47:35
140,Bassar,9.25,0.7833,296.15,92,100,0.49,TG,2021-09-08 06:47:35
141,Soyo,-6.1349,12.3689,297.18,84,100,1.22,AO,2021-09-08 06:42:50
142,Blagoyevo,63.3667,47.9167,280.74,69,80,3.37,RU,2021-09-08 06:47:36
143,Valdivia,-39.8142,-73.2459,275.2,98,27,0.65,CL,2021-09-08 06:42:44
144,Elat,29.5581,34.9482,301.06,51,0,5.14,IL,2021-09-08 06:47:36
145,Chopda,21.25,75.3,303.14,74,100,2.51,IN,2021-09-08 06:47:37
146,Saint-Pierre,-21.3393,55.4781,297.97,52,0,4.12,RE,2021-09-08 06:43:00
147,Kavaratti,10.5669,72.642,300.91,79,100,7.34,IN,2021-09-08 06:41:33
148,Necochea,-38.5473,-58.7368,283.21,94,100,9.27,AR,2021-09-08 06:42:48
149,Niksar,40.5917,36.9517,287.27,48,0,1.38,TR,2021-09-08 06:47:38
150,Hwange,-18.3693,26.5019,299.21,25,0,3.99,ZW,2021-09-08 06:47:38
151,Saldanha,-33.0117,17.9442,281.18,76,52,5.89,ZA,2021-09-08 06:41:03
152,Iaciara,-14.0958,-46.6317,297.23,34,11,1.88,BR,2021-09-08 06:47:39
153,Aksu,41.1231,80.2644,305.7,15,0,2.98,CN,2021-09-08 06:47:39
154,Monte Patria,-30.6919,-70.9467,281.86,57,0,1.0,CL,2021-09-08 06:47:39
155,Killin,33.6123,-91.7412,292.12,88,1,0.0,US,2021-09-08 06:47:40
156,Ovre Ardal,61.3167,7.8,287.64,99,100,2.35,NO,2021-09-08 06:47:40
157,Sirumugai,11.3333,77.0167,303.91,53,100,2.83,IN,2021-09-08 06:47:40
158,Tobermory,45.2501,-81.6665,285.54,81,0,6.17,CA,2021-09-08 06:44:13
159,Kamenka,51.3223,42.7678,288.29,42,99,5.48,RU,2021-09-08 06:47:41
160,Ostersund,63.1792,14.6357,287.4,77,90,6.17,SE,2021-09-08 06:41:01
161,Carutapera,-1.195,-46.02,298.43,84,29,3.46,BR,2021-09-08 06:43:18
162,Viedma,-40.8135,-62.9967,281.9,94,100,3.25,AR,2021-09-08 06:40:34
163,Serenje,-13.2325,30.2352,296.9,33,0,5.14,ZM,2021-09-08 06:47:42
164,Salalah,17.0151,54.0924,301.2,83,75,2.57,OM,2021-09-08 06:40:32
165,Lere,10.387,8.5726,293.73,85,71,1.44,NG,2021-09-08 06:47:42
166,Olafsvik,64.8945,-23.7142,282.9,79,100,5.21,IS,2021-09-08 06:41:02
167,Ponta Do Sol,32.6667,-17.1,295.77,80,27,0.63,PT,2021-09-08 06:40:28
168,Nouakchott,18.0858,-15.9785,299.11,82,38,3.58,MR,2021-09-08 06:47:43
169,Boden,65.8252,21.6886,287.15,63,100,4.85,SE,2021-09-08 06:47:43
170,Abu Samrah,35.3029,37.1841,299.64,45,0,3.9,SY,2021-09-08 06:42:41
171,Chambas,22.1928,-78.9136,299.94,93,1,1.56,CU,2021-09-08 06:47:44
172,Harper,4.375,-7.7169,298.03,87,95,1.87,LR,2021-09-08 06:47:44
173,Koroni,36.8,21.95,294.86,66,94,1.66,GR,2021-09-08 06:47:45
174,Bangassou,4.7413,22.8184,296.79,73,99,0.53,CF,2021-09-08 06:41:12
175,Pangnirtung,66.1451,-65.7125,276.2,59,29,1.09,CA,2021-09-08 06:40:44
176,Zyryanovsk,49.7386,84.2719,304.7,19,0,2.28,KZ,2021-09-08 06:47:45
177,Raga,8.4596,25.678,298.4,71,11,1.9,SS,2021-09-08 06:47:46
178,Mogadishu,2.0371,45.3438,301.08,83,75,6.69,SO,2021-09-08 06:42:20
179,Stranda,62.3096,6.9358,290.25,83,100,2.95,NO,2021-09-08 06:47:46
180,Garissa,-0.4536,39.6401,301.85,49,59,9.32,KE,2021-09-08 06:47:46
181,Buraydah,26.326,43.975,307.4,10,0,4.03,SA,2021-09-08 06:42:09
182,Cayenne,4.9333,-52.3333,299.87,87,20,0.45,GF,2021-09-08 06:40:37
183,Beira,-19.8436,34.8389,298.2,78,75,1.03,MZ,2021-09-08 06:47:47
184,Morondava,-20.2833,44.2833,299.32,47,0,1.84,MG,2021-09-08 06:42:32
185,Le Vauclin,14.5452,-60.8388,297.18,94,20,1.54,MQ,2021-09-08 06:43:36
186,Wajir,1.7471,40.0573,301.81,44,6,9.18,KE,2021-09-08 06:47:48
187,Gamba,-2.65,10.0,298.17,74,100,0.65,GA,2021-09-08 06:41:57
188,Dolores,-36.3132,-57.6792,285.82,90,100,10.1,AR,2021-09-08 06:47:48
189,Montigny-Les-Metz,49.0943,6.1517,292.45,84,0,4.12,FR,2021-09-08 06:47:48
190,Cacoal,-11.4386,-61.4472,299.04,56,8,1.09,BR,2021-09-08 06:46:15
191,Hammerfest,70.6634,23.6821,281.0,93,75,2.06,NO,2021-09-08 06:47:49
192,Oistins,13.0667,-59.5333,301.2,78,20,5.66,BB,2021-09-08 06:42:57
193,Jaisinghnagar,23.7,81.3833,301.23,71,73,3.21,IN,2021-09-08 06:47:49
194,Kabompo,-13.5927,24.2008,300.14,18,0,3.96,ZM,2021-09-08 06:40:27
195,Uvat,59.1433,68.8953,285.97,43,19,4.38,RU,2021-09-08 06:47:50
196,Skiathos,39.1623,23.4909,294.24,68,75,7.72,GR,2021-09-08 06:47:50
197,Voi,-3.3945,38.563,298.64,51,48,5.29,KE,2021-09-08 06:47:51
198,Rimini,44.0241,12.5186,295.16,64,0,2.24,IT,2021-09-08 06:47:51
199,Marrakesh,31.6315,-8.0083,296.19,68,40,1.54,MA,2021-09-08 06:45:44
200,Kilindoni,-7.9139,39.6668,299.02,74,9,5.57,TZ,2021-09-08 06:40:57
201,Beyneu,45.3167,55.2,291.94,30,0,6.81,KZ,2021-09-08 06:43:40
202,Gat,31.61,34.7642,302.82,49,0,1.71,IL,2021-09-08 06:42:06
203,Cap Malheureux,-19.9842,57.6142,295.08,75,56,2.24,MU,2021-09-08 06:41:11
204,Bara,10.3744,10.7288,296.97,83,47,2.98,NG,2021-09-08 06:47:52
205,Gravdal,68.1214,13.5031,283.97,81,75,7.72,NO,2021-09-08 06:47:53
206,Chilca,-12.5211,-76.7372,289.6,91,95,1.3,PE,2021-09-08 06:47:53
207,Zlobin,45.2924,14.6541,292.76,31,0,3.6,HR,2021-09-08 06:47:53
208,Los Algarrobos,8.5,-82.4333,298.96,89,100,0.84,PA,2021-09-08 06:47:54
209,Hamilton,39.1834,-84.5333,295.12,73,40,6.17,US,2021-09-08 06:35:38
210,Kemijarvi,66.7131,27.4306,283.55,92,100,3.45,FI,2021-09-08 06:42:04
211,Victoria Falls,-17.9235,25.843,296.21,40,0,3.09,ZW,2021-09-08 06:47:54
212,Bambous Virieux,-20.3428,57.7575,294.94,88,75,9.77,MU,2021-09-08 06:41:06
213,Sechura,-5.5569,-80.8222,291.02,80,99,5.15,PE,2021-09-08 06:40:41
214,Oudtshoorn,-33.5907,22.2014,288.35,45,39,1.43,ZA,2021-09-08 06:47:55
215,Antigonish,45.6169,-61.9986,289.93,91,0,3.05,CA,2021-09-08 06:45:05
216,Kutum,14.2,24.6667,300.2,47,20,1.51,SD,2021-09-08 06:42:33
217,Puerto Carreno,6.189,-67.4859,296.71,93,100,1.55,CO,2021-09-08 06:39:12
218,Vila Franca Do Campo,37.7167,-25.4333,293.38,85,100,1.18,PT,2021-09-08 06:40:55
219,Tambura,5.6,27.4667,296.95,79,66,1.92,SS,2021-09-08 06:47:56
220,Kauhajoki,62.4333,22.1833,288.14,89,100,5.17,FI,2021-09-08 06:47:56
221,Porto Nacional,-10.7081,-48.4172,297.15,48,41,0.37,BR,2021-09-08 06:47:57
222,Castro,-24.7911,-50.0119,287.89,92,100,3.52,BR,2021-09-08 06:41:52
223,Alibag,18.6411,72.8792,300.19,95,100,7.6,IN,2021-09-08 06:47:57
224,Suoyarvi,62.0833,32.35,285.21,96,100,4.16,RU,2021-09-08 06:47:57
225,Cayeli,41.0923,40.7292,292.41,90,100,1.9,TR,2021-09-08 06:47:58
226,Jaszszentlaszlo,46.5668,19.7607,287.22,35,0,2.13,HU,2021-09-08 06:47:58
227,Bathsheba,13.2167,-59.5167,301.49,78,20,5.66,BB,2021-09-08 06:41:14
228,Mastic Beach,40.7668,-72.8521,296.17,86,1,4.47,US,2021-09-08 06:47:59
229,Amapa,1.0,-52.0,294.32,100,100,0.99,BR,2021-09-08 06:43:15
230,Iqaluit,63.7506,-68.5145,276.0,81,1,1.03,CA,2021-09-08 06:41:44
231,Tatawin,32.9297,10.4518,295.64,62,7,0.94,TN,2021-09-08 06:47:59
232,Hofn,64.2539,-15.2082,281.63,82,100,1.13,IS,2021-09-08 06:40:36
233,Opuwo,-18.0607,13.84,297.42,17,0,1.46,NA,2021-09-08 06:48:00
234,El Alto,-4.2714,-81.2147,290.03,83,10,7.02,PE,2021-09-08 06:48:00
235,Raudeberg,61.9875,5.1352,289.93,94,100,9.9,NO,2021-09-08 06:48:01
236,Sept-Iles,50.2001,-66.3821,284.85,94,1,1.03,CA,2021-09-08 06:42:01
237,La Asuncion,11.0333,-63.8628,300.0,94,95,4.63,VE,2021-09-08 06:48:01
238,Santa Rosa,14.3122,121.1114,298.14,94,100,10.91,PH,2021-09-08 06:40:58
239,Saint-Francois,46.4154,3.9054,292.86,88,0,1.54,FR,2021-09-08 06:43:35
240,Port-Gentil,-0.7193,8.7815,298.13,83,75,3.6,GA,2021-09-08 06:42:08
241,Wismar,53.9,11.4667,290.44,90,42,0.45,DE,2021-09-08 06:48:02
242,Ndende,-2.4008,11.3581,298.62,69,15,1.11,GA,2021-09-08 06:48:02
243,Awbari,26.5921,12.7805,300.33,40,0,4.8,LY,2021-09-08 06:48:03
244,Banda Aceh,5.5577,95.3222,302.59,65,100,7.18,ID,2021-09-08 06:41:21
245,Pedasi,7.5333,-80.0333,298.72,85,100,2.23,PA,2021-09-08 06:48:03
246,Axim,4.8699,-2.2405,297.88,88,99,2.49,GH,2021-09-08 06:48:04
247,Tessalit,20.1986,1.0114,304.21,23,5,4.14,ML,2021-09-08 06:41:19
248,Mizdah,31.4451,12.9801,294.79,68,0,2.76,LY,2021-09-08 06:48:04
249,Lexington,37.9887,-84.4777,292.09,82,1,2.06,US,2021-09-08 06:44:45
250,Sahawar,27.8,78.85,304.35,63,89,6.7,IN,2021-09-08 06:48:05
251,Turbat,26.0023,63.044,311.61,24,100,2.19,PK,2021-09-08 06:48:05
252,Andujar,38.0392,-4.0508,293.54,85,18,2.87,ES,2021-09-08 06:48:05
253,Robe,-37.1833,139.75,287.56,75,24,6.9,AU,2021-09-08 06:48:06
254,Lagoa,39.05,-27.9833,293.93,85,100,4.32,PT,2021-09-08 06:42:49
255,Sassandra,4.95,-6.0833,296.87,92,83,1.77,CI,2021-09-08 06:43:22
256,Vikindu,-7.0067,39.2985,298.95,78,75,3.09,TZ,2021-09-08 06:48:06
257,Sistranda,63.7256,8.834,286.43,97,100,6.39,NO,2021-09-08 06:48:07
258,Agirish,61.9247,63.0231,280.34,67,99,3.95,RU,2021-09-08 06:48:07
259,Thinadhoo,0.5333,72.9333,301.29,72,100,3.46,MV,2021-09-08 06:48:07
260,Tonantins,-2.8731,-67.8022,295.35,99,100,1.28,BR,2021-09-08 06:48:08
261,Parabel,58.6978,81.4825,290.56,48,100,1.15,RU,2021-09-08 06:48:08
262,Skowhegan,44.7651,-69.7192,287.46,98,5,0.17,US,2021-09-08 06:48:08
263,Adrar,20.5022,-10.0711,303.86,27,1,3.55,MR,2021-09-08 06:48:09
264,Garowe,8.4054,48.4845,301.67,48,77,11.18,SO,2021-09-08 06:48:09
265,Rodrigues Alves,-7.738,-72.6509,295.8,86,0,0.61,BR,2021-09-08 06:48:09
266,Sao Joao Da Barra,-21.6403,-41.0511,294.16,81,100,5.92,BR,2021-09-08 06:40:48
267,Mattru,7.6244,-11.8332,295.38,99,38,1.08,SL,2021-09-08 06:40:58
268,Muscat,23.6139,58.5922,306.16,53,100,3.28,OM,2021-09-08 06:48:10
269,Ust-Tsilma,65.441,52.1498,279.22,77,100,4.06,RU,2021-09-08 06:40:22
270,Marawi,7.9986,124.2928,295.18,78,98,3.1,PH,2021-09-08 06:43:32
271,Tutoia,-2.7619,-42.2744,298.59,85,100,5.26,BR,2021-09-08 06:48:11
272,Mumford,5.2618,-0.759,297.13,90,97,3.46,GH,2021-09-08 06:48:11
273,Berlevag,70.8578,29.0864,277.12,75,75,1.54,NO,2021-09-08 06:41:27
274,Morros,-9.4467,-46.3003,295.57,37,50,2.03,BR,2021-09-08 06:48:12
275,Shache,38.4167,77.2406,306.69,11,0,2.99,CN,2021-09-08 06:48:12
276,Loubomo,-4.1997,12.6739,297.09,63,100,1.12,CG,2021-09-08 06:48:12
277,Albany,42.6001,-73.9662,290.75,88,5,1.98,US,2021-09-08 06:39:48
278,Olinda,-8.0089,-34.8553,298.0,69,40,5.14,BR,2021-09-08 06:39:17
279,Grand Gaube,-20.0064,57.6608,295.03,75,44,2.24,MU,2021-09-08 06:40:47
280,Wake Forest,35.9799,-78.5097,297.18,92,1,0.0,US,2021-09-08 06:48:13
281,Lubawa,53.5043,19.7497,287.86,63,9,2.54,PL,2021-09-08 06:48:14
282,Guisa,20.255,-76.5386,298.32,91,5,1.75,CU,2021-09-08 06:48:14
283,Bundibugyo,0.7414,30.0417,293.92,92,93,0.86,UG,2021-09-08 06:48:14
284,Plettenberg Bay,-34.0527,23.3716,289.57,46,64,1.97,ZA,2021-09-08 06:41:27
285,Marigot,18.0667,-63.0833,300.79,83,20,1.03,MF,2021-09-08 06:48:15
286,Luanda,-8.8368,13.2343,295.15,94,90,2.06,AO,2021-09-08 06:47:37
287,Sinnamary,5.3833,-52.95,298.91,85,99,3.94,GF,2021-09-08 06:40:33
288,Weligama,5.9667,80.4167,302.64,68,10,5.58,LK,2021-09-08 06:48:15
289,Harwich,51.9419,1.2844,292.14,90,72,4.49,GB,2021-09-08 06:48:16
290,Tokat,40.4167,36.5833,280.24,44,0,2.22,TR,2021-09-08 06:48:16
291,Atar,20.5169,-13.0499,304.65,38,5,1.42,MR,2021-09-08 06:40:51
292,Tukrah,32.5341,20.5791,299.2,57,0,5.57,LY,2021-09-08 06:48:17
293,Presidente Epitacio,-21.7633,-52.1156,298.07,29,42,1.5,BR,2021-09-08 06:48:17
294,Antalaha,-14.9003,50.2788,297.12,67,25,4.47,MG,2021-09-08 06:48:17
295,Lieksa,63.3167,30.0167,285.86,88,100,7.21,FI,2021-09-08 06:43:26
296,Macau,22.2006,113.5461,307.48,70,20,2.06,MO,2021-09-08 06:48:18
297,Grindavik,63.8424,-22.4338,281.41,93,75,3.6,IS,2021-09-08 06:41:31
298,Monrovia,6.3005,-10.7969,297.05,92,77,2.16,LR,2021-09-08 06:48:18
299,Annau,37.8876,58.516,300.87,36,75,8.23,TM,2021-09-08 06:41:35
300,Buchanan,5.8808,-10.0467,297.1,92,84,1.64,LR,2021-09-08 06:41:42
301,Malatya,38.5,38.0,296.18,29,0,2.57,TR,2021-09-08 06:48:19
302,Divo,5.8397,-5.36,295.17,96,96,0.78,CI,2021-09-08 06:48:20
303,Beloha,-25.1667,45.05,299.44,37,0,3.22,MG,2021-09-08 06:43:11
304,Kalundborg,55.6795,11.0886,291.0,90,24,5.22,DK,2021-09-08 06:48:20
305,Tallahassee,30.4383,-84.2807,298.44,96,1,0.0,US,2021-09-08 06:47:15
306,Sokolo,14.7328,-6.1219,299.88,67,21,3.83,ML,2021-09-08 06:48:21
307,Jijiga,9.35,42.8,293.07,72,87,8.68,ET,2021-09-08 06:48:21
308,Sarakhs,36.5449,61.1577,305.23,29,0,5.14,IR,2021-09-08 06:48:21
309,Husavik,66.0449,-17.3389,274.1,79,50,1.76,IS,2021-09-08 06:41:24
310,Sawakin,19.1059,37.3321,310.71,31,55,1.22,SD,2021-09-08 06:43:22
311,Limbe,4.0242,9.2149,295.73,81,100,0.96,CM,2021-09-08 06:48:22
312,Campagna,40.6653,15.1059,295.71,65,94,1.34,IT,2021-09-08 06:48:22
313,Rio Grande,-32.035,-52.0986,288.68,96,100,13.43,BR,2021-09-08 06:41:56
314,Olavarria,-36.8927,-60.3225,283.31,95,100,8.66,AR,2021-09-08 06:48:23
315,Samana,19.2056,-69.3369,298.59,87,1,2.04,DO,2021-09-08 06:48:23
316,Matara,5.9485,80.5353,303.17,65,9,6.0,LK,2021-09-08 06:48:23
317,Tyup,42.7276,78.3648,299.95,19,0,3.74,KG,2021-09-08 06:48:24
318,Worcester,42.3334,-71.8328,289.16,90,1,4.12,US,2021-09-08 06:48:24
319,Porto Santo,33.072,-16.3415,295.36,83,40,2.57,PT,2021-09-08 06:48:25
320,Vincennes,48.85,2.4333,291.98,70,0,1.34,FR,2021-09-08 06:48:25
321,San Ramon,37.7799,-121.978,298.65,58,1,1.34,US,2021-09-08 06:47:03
322,Petauke,-14.2426,31.3253,299.44,27,0,4.6,ZM,2021-09-08 06:48:26
323,Taltal,-25.4,-70.4833,286.2,71,0,1.9,CL,2021-09-08 06:48:11
324,Araripe,-7.2125,-40.0461,291.57,78,6,3.12,BR,2021-09-08 06:48:26
325,Chukhloma,58.7525,42.6825,283.09,95,100,4.1,RU,2021-09-08 06:48:26
326,San Borja,-14.8167,-66.85,298.05,62,54,1.84,BO,2021-09-08 06:48:27
327,Pafos,34.7667,32.4167,302.17,61,20,1.54,CY,2021-09-08 06:46:13
328,Aqtobe,50.2797,57.2072,287.2,35,0,6.0,KZ,2021-09-08 06:48:27
329,Tucurui,-3.7661,-49.6725,295.46,97,10,1.61,BR,2021-09-08 06:48:28
330,Paamiut,61.994,-49.6678,279.8,79,97,3.43,GL,2021-09-08 06:41:28
331,Asosa,10.0667,34.5333,290.49,93,100,1.48,ET,2021-09-08 06:48:28
332,Matveyevka,52.15,56.1833,287.68,36,5,6.53,RU,2021-09-08 06:48:28
333,Cairo,30.0626,31.2497,302.57,54,0,5.14,EG,2021-09-08 06:48:29
334,Krasnoselkup,65.7,82.4667,281.62,93,100,2.84,RU,2021-09-08 06:40:57
335,Dimbokro,6.6451,-4.7048,295.57,95,94,1.11,CI,2021-09-08 06:48:29
336,Tomaszow Mazowiecki,51.5313,20.0086,290.64,64,13,1.41,PL,2021-09-08 06:48:30
337,Parana,-31.732,-60.5238,288.47,94,100,6.23,AR,2021-09-08 06:48:30
338,Teya,60.3778,92.6267,290.78,46,100,2.49,RU,2021-09-08 06:48:30
339,Chlorakas,34.8042,32.4083,301.79,65,20,1.54,CY,2021-09-08 06:48:31
340,Idil,37.3411,41.8895,303.11,19,0,2.06,TR,2021-09-08 06:48:31
341,Osakarovka,50.565,72.5692,292.5,48,72,9.25,KZ,2021-09-08 06:48:31
342,Sesvete,45.8311,16.1164,291.64,76,0,0.0,HR,2021-09-08 06:48:32
343,Kita,13.0349,-9.4895,296.03,88,8,1.3,ML,2021-09-08 06:48:32
344,Margate,51.3813,1.3862,292.53,90,37,4.7,GB,2021-09-08 06:41:59
345,Sembe,1.6481,14.5806,296.55,89,99,1.71,CG,2021-09-08 06:40:54
346,Rio Gallegos,-51.6226,-69.2181,281.18,57,40,6.17,AR,2021-09-08 06:48:33
347,Bamako,12.65,-8.0,297.38,100,20,1.03,ML,2021-09-08 06:48:33
348,Nynashamn,58.9034,17.9479,289.27,85,100,6.65,SE,2021-09-08 06:48:34
349,Strezhevoy,60.7333,77.5889,281.14,58,100,3.03,RU,2021-09-08 06:48:34
350,Manitouwadge,49.1215,-85.8403,286.55,99,100,2.66,CA,2021-09-08 06:48:34
351,Phalodi,27.1333,72.3667,309.12,43,58,3.97,IN,2021-09-08 06:48:35
352,Oksfjord,70.2396,22.3479,282.19,89,100,1.33,NO,2021-09-08 06:48:35
353,Copiapo,-27.3667,-70.3333,279.98,62,3,0.65,CL,2021-09-08 06:48:35
354,Slatina,44.4333,24.3667,291.17,48,45,4.05,RO,2021-09-08 06:48:36
355,Otjimbingwe,-22.35,16.1333,295.77,14,4,4.2,NA,2021-09-08 06:48:36
356,Findlay,41.0442,-83.6499,295.56,64,75,5.66,US,2021-09-08 06:45:45
357,Tazovskiy,67.4667,78.7,283.16,66,89,1.25,RU,2021-09-08 06:42:51
358,Ilo,-17.6394,-71.3375,288.0,86,70,4.15,PE,2021-09-08 06:48:37
359,Ancud,-41.8697,-73.8203,279.89,89,29,1.65,CL,2021-09-08 06:42:05
360,Eyl,7.9803,49.8164,303.62,49,99,11.47,SO,2021-09-08 06:48:37
361,Sharjah,25.3573,55.4033,311.62,43,0,3.09,AE,2021-09-08 06:42:06
362,Strathpeffer,57.588,-4.5382,289.1,93,96,1.03,GB,2021-09-08 06:48:38
363,Umtata,-31.5889,28.7844,280.46,93,75,1.54,ZA,2021-09-08 06:48:38
364,Songadh,21.1667,73.5667,301.52,86,100,4.22,IN,2021-09-08 06:48:39
365,San Antonio,29.4241,-98.4936,300.36,80,1,2.57,US,2021-09-08 06:44:49
366,Terra Santa,-2.1042,-56.4869,297.72,71,84,1.4,BR,2021-09-08 06:41:51
367,Chancay,-11.5714,-77.2672,289.44,92,97,3.02,PE,2021-09-08 06:42:03
368,Iquique,-20.2208,-70.1431,287.17,78,51,3.01,CL,2021-09-08 06:42:24
369,Pryozerne,45.2698,36.3303,292.42,42,0,9.96,UA,2021-09-08 06:48:39
370,Lodja,-3.4833,23.4333,297.81,74,87,1.83,CD,2021-09-08 06:41:50
371,Santiago Del Estero,-27.7951,-64.2615,285.26,48,98,12.02,AR,2021-09-08 06:48:36
372,Siilinjarvi,63.0833,27.6667,287.16,82,75,5.14,FI,2021-09-08 06:48:40
373,Kibiti,-7.7218,38.9375,301.57,52,81,2.4,TZ,2021-09-08 06:48:40
374,Kodino,63.7198,39.6447,282.89,97,100,3.85,RU,2021-09-08 06:48:41
375,Labrea,-7.2586,-64.7981,297.91,68,7,1.27,BR,2021-09-08 06:48:41
376,Yafran,32.0633,12.5286,293.25,71,13,2.12,LY,2021-09-08 06:48:41
377,Burgeo,47.6167,-57.6152,288.01,92,6,6.15,CA,2021-09-08 06:48:42
378,Gummidipundi,13.4,80.15,308.15,46,98,5.8,IN,2021-09-08 06:48:42
379,Point Pedro,9.8167,80.2333,302.7,68,15,8.34,LK,2021-09-08 06:48:43
380,El Tigre,8.8875,-64.2454,296.27,90,96,3.15,VE,2021-09-08 06:41:32
381,Janauba,-15.8025,-43.3089,293.93,69,11,3.21,BR,2021-09-08 06:48:43
382,Koping,59.514,15.9926,291.4,79,100,5.39,SE,2021-09-08 06:48:44
383,Tabas,33.5959,56.9244,306.42,11,0,0.34,IR,2021-09-08 06:48:44
384,Kabinda,-6.1333,24.4833,297.57,65,100,2.77,CD,2021-09-08 06:48:44
385,Omboue,-1.5746,9.2618,298.64,74,91,1.82,GA,2021-09-08 06:42:59
386,Fereydun Kenar,36.6864,52.5225,300.32,65,89,1.89,IR,2021-09-08 06:48:45
387,Talara,-4.5772,-81.2719,291.04,84,39,7.42,PE,2021-09-08 06:48:45
388,Uarini,-2.99,-65.1083,296.85,96,100,0.92,BR,2021-09-08 06:48:46
389,Uspenka,48.3903,39.1619,290.66,33,0,0.81,UA,2021-09-08 06:48:46
390,Henties Bay,-22.116,14.2845,284.18,78,0,0.25,NA,2021-09-08 06:48:46
391,Pokaran,26.9167,71.9167,309.17,44,92,3.12,IN,2021-09-08 06:42:22
392,Kazlu Ruda,54.7667,23.5,286.14,58,12,3.63,LT,2021-09-08 06:48:47
393,North Myrtle Beach,33.816,-78.68,299.27,94,1,0.0,US,2021-09-08 06:46:20
394,Micheweni,-4.9667,39.8333,299.84,71,17,4.75,TZ,2021-09-08 06:48:47
395,Guane,22.2025,-84.0875,298.26,87,97,1.65,CU,2021-09-08 06:48:48
396,Kindia,10.0569,-12.8658,293.32,99,31,0.95,GN,2021-09-08 06:48:48
397,Yar-Sale,66.8333,70.8333,281.92,59,100,6.64,RU,2021-09-08 06:48:48
398,Hrinova,48.5779,19.5257,290.11,55,85,1.03,SK,2021-09-08 06:48:49
399,Repatriacion,-25.5333,-55.95,304.09,29,100,3.86,PY,2021-09-08 06:48:49
400,Jasper,37.2001,-94.3502,297.18,78,75,5.66,US,2021-09-08 06:48:49
401,Kalamazoo,42.2506,-85.55,292.32,88,1,3.09,US,2021-09-08 06:48:50
402,Brigantine,39.4101,-74.3646,296.49,79,0,5.15,US,2021-09-08 06:47:13
403,Vicuna,-30.0319,-70.7081,279.0,51,0,0.92,CL,2021-09-08 06:48:51
404,Clemson,34.6834,-82.8374,296.61,95,75,0.0,US,2021-09-08 06:45:56
405,Iquitos,-3.7481,-73.2472,297.17,94,0,0.0,PE,2021-09-08 06:48:51
406,Ordzhonikidze,52.4411,61.7408,286.98,34,6,6.84,KZ,2021-09-08 06:48:51
407,Sar-E Pul,35.8333,66.1667,300.34,13,0,4.5,AF,2021-09-08 06:48:52
408,Salinas,36.6777,-121.6555,296.8,88,90,4.63,US,2021-09-08 06:48:52
409,Cabedelo,-6.9811,-34.8339,296.52,85,100,5.64,BR,2021-09-08 06:46:22
410,Inongo,-1.95,18.2667,294.36,88,81,1.33,CD,2021-09-08 06:48:53
411,Sorland,67.667,12.6934,284.07,71,90,4.12,NO,2021-09-08 06:42:53
412,Grand-Lahou,5.1367,-5.0242,297.14,91,42,1.99,CI,2021-09-08 06:48:53
413,Hobyo,5.3505,48.5268,301.1,68,58,10.08,SO,2021-09-08 06:41:00
414,Altea,38.5989,-0.0514,298.32,76,100,1.93,ES,2021-09-08 06:48:54
415,Bull Savanna,17.8868,-77.5902,297.81,84,5,3.39,JM,2021-09-08 06:48:54
416,Zaysan,47.4667,84.8667,307.76,10,0,4.15,KZ,2021-09-08 06:48:54
417,Sungurlu,40.1675,34.3739,290.23,30,0,1.78,TR,2021-09-08 06:48:55
418,Sheboygan,43.7333,-87.9334,289.62,81,1,2.06,US,2021-09-08 06:48:55
419,Mafinga,-7.25,35.0667,297.73,45,0,3.27,TZ,2021-09-08 06:48:55
420,Vestmannaeyjar,63.4427,-20.2734,283.05,74,100,7.54,IS,2021-09-08 06:41:05
421,Chagoda,59.164,35.3285,283.71,94,100,4.65,RU,2021-09-08 06:48:56
422,Bay Roberts,47.5999,-53.2648,288.89,97,22,1.79,CA,2021-09-08 06:48:56
423,Iralaya,15.0,-83.2333,299.41,86,15,3.63,HN,2021-09-08 06:48:57
424,Araci,-11.3333,-38.9667,292.91,98,65,2.23,BR,2021-09-08 06:48:57
425,Nosy Varika,-20.5833,48.5333,296.43,62,35,3.03,MG,2021-09-08 06:48:57
426,Salekhard,66.53,66.6019,281.27,63,86,4.87,RU,2021-09-08 06:48:58
427,Voznesenye,61.0106,35.4781,284.81,93,100,7.47,RU,2021-09-08 06:48:58
428,Sturgeon Falls,46.3646,-79.9326,291.53,96,37,3.79,CA,2021-09-08 06:48:58
429,Itarema,-2.9248,-39.9167,298.76,75,89,6.79,BR,2021-09-08 06:48:59
430,Yendi,9.4427,-0.0099,296.45,91,100,0.61,GH,2021-09-08 06:48:59
431,Vallenar,-28.5708,-70.7581,283.91,53,0,2.41,CL,2021-09-08 06:49:00
432,Vestmanna,62.1564,-7.1664,282.66,100,90,5.14,FO,2021-09-08 06:41:45
433,Villazon,-22.0866,-65.5942,279.23,17,100,4.42,BO,2021-09-08 06:49:00
434,Palmas,-10.2128,-48.3603,297.08,88,0,1.54,BR,2021-09-08 06:49:00
435,Chimoio,-19.1164,33.4833,292.07,100,40,1.03,MZ,2021-09-08 06:49:01
436,Kayseri,38.737,35.4968,289.16,51,0,0.51,TR,2021-09-08 06:49:01
437,Sur,22.5667,59.5289,308.0,43,96,3.12,OM,2021-09-08 06:49:02
438,Barcelos,41.5388,-8.6151,293.23,94,95,2.85,PT,2021-09-08 06:44:22
439,Mehamn,71.0357,27.8492,277.1,73,100,2.22,NO,2021-09-08 06:49:02
440,Sao Borja,-28.6606,-56.0044,291.45,95,100,5.93,BR,2021-09-08 06:49:03
441,Saint-Joseph,-21.3667,55.6167,297.36,65,31,5.0,RE,2021-09-08 06:41:48
442,Svetlogorsk,52.6333,29.7333,288.45,55,51,1.78,BY,2021-09-08 06:42:24
443,Peterhead,57.5058,-1.7981,289.88,97,93,3.65,GB,2021-09-08 06:40:39
444,Aprilia,41.5895,12.6501,298.11,67,20,3.09,IT,2021-09-08 06:49:04
445,Altamira,-3.2033,-52.2064,294.73,99,94,1.32,BR,2021-09-08 06:49:04
446,Liepaja,56.5419,21.0367,290.14,88,20,6.69,LV,2021-09-08 06:42:00
447,Zhanaozen,43.3,52.8,291.54,25,100,7.08,KZ,2021-09-08 06:49:04
448,Padang,-0.9492,100.3543,299.18,68,94,2.82,ID,2021-09-08 06:43:17
449,Kommunar,59.6206,30.39,287.89,77,87,6.43,RU,2021-09-08 06:49:05
450,Martinsville,36.6915,-79.8725,295.05,100,40,0.0,US,2021-09-08 06:49:05
451,Tiruchchendur,8.4833,78.1167,310.31,57,15,7.26,IN,2021-09-08 06:49:06
452,Middle Island,40.8843,-72.9373,296.09,88,1,2.57,US,2021-09-08 06:49:06
453,Abapo,-18.8333,-63.4667,294.32,57,100,0.91,BO,2021-09-08 06:49:06
454,West Bay,19.3667,-81.4167,301.48,84,17,4.91,KY,2021-09-08 06:43:17
455,Kongolo,-5.3833,27.0,299.94,60,100,3.47,CD,2021-09-08 06:49:07
456,Malindi,-3.2175,40.1191,300.24,74,40,5.14,KE,2021-09-08 06:49:07
457,Progreso,21.2833,-89.6667,297.1,91,100,3.47,MX,2021-09-08 06:45:15
458,Salta,-24.7859,-65.4117,289.31,75,40,0.45,AR,2021-09-08 06:49:08
459,Ceres,37.5949,-120.9577,300.1,61,0,3.62,US,2021-09-08 06:49:08
460,Ondjiva,-17.0667,15.7333,292.17,22,0,2.06,AO,2021-09-08 06:49:08
461,Wageningen,51.9667,5.6667,290.98,82,53,2.06,NL,2021-09-08 06:49:09
462,Saryozek,44.3583,77.9753,304.67,11,0,4.67,KZ,2021-09-08 06:49:09
463,Humaita,-7.5061,-63.0208,298.35,60,34,0.73,BR,2021-09-08 06:49:09
464,Sinjar,36.3209,41.8754,305.85,21,0,4.0,IQ,2021-09-08 06:49:10
465,Kangaatsiaq,68.3065,-53.4641,275.21,60,1,2.55,GL,2021-09-08 06:49:10
466,Honningsvag,70.9821,25.9704,278.07,72,100,3.05,NO,2021-09-08 06:49:10
467,Charlottesville,38.0293,-78.4767,292.64,93,1,0.89,US,2021-09-08 06:47:47
468,Salisbury,51.0693,-1.7957,292.57,81,0,3.6,GB,2021-09-08 06:41:55
469,Felipe Carrillo Puerto,19.5833,-88.05,297.01,97,100,0.83,MX,2021-09-08 06:49:11
470,Butembo,0.15,29.2833,290.46,88,87,1.12,CD,2021-09-08 06:49:11
471,Porto Novo,6.4965,2.6036,299.05,85,100,2.41,BJ,2021-09-08 06:42:17
472,Roald,62.5833,6.1333,289.88,94,75,8.75,NO,2021-09-08 06:49:12
473,Coro,11.4045,-69.6734,298.99,86,77,4.64,VE,2021-09-08 06:49:12
474,Ginir,7.1333,40.7,293.86,58,65,4.99,ET,2021-09-08 06:49:13
475,Muhos,64.808,25.9931,286.03,84,86,4.28,FI,2021-09-08 06:49:13
476,Dudinka,69.4058,86.1778,282.36,77,100,2.5,RU,2021-09-08 06:49:14
477,The Valley,18.217,-63.0578,301.38,76,6,2.88,AI,2021-09-08 06:43:30
478,Challapata,-18.9,-66.7667,277.96,34,100,2.22,BO,2021-09-08 06:49:14
479,Effium,6.6292,8.0593,296.78,95,100,2.78,NG,2021-09-08 06:49:15
480,Sangmelima,2.9333,11.9833,293.21,99,100,0.97,CM,2021-09-08 06:49:15
481,Anaco,9.4389,-64.4728,295.8,93,100,3.05,VE,2021-09-08 06:49:15
482,Kalabo,-14.97,22.6814,300.41,15,0,4.37,ZM,2021-09-08 06:49:16
483,Chapleau,47.8405,-83.4034,285.06,97,100,4.59,CA,2021-09-08 06:49:16
484,Sarandi,-23.4436,-51.8739,295.03,56,3,5.14,BR,2021-09-08 06:43:41
485,Turukhansk,65.8167,87.9833,287.76,53,100,3.84,RU,2021-09-08 06:49:16
486,Saint-Raymond,45.467,-73.6095,291.47,82,75,1.54,CA,2021-09-08 06:49:17
487,Wegrow,52.3995,22.0163,287.39,61,52,1.84,PL,2021-09-08 06:49:17
488,Dasoguz,41.8363,59.9666,300.21,38,0,9.26,TM,2021-09-08 06:49:18
489,Santa Maria,-29.6842,-53.8069,289.52,98,100,4.56,BR,2021-09-08 06:49:18
490,Menongue,-14.6585,17.691,299.56,16,12,3.55,AO,2021-09-08 06:41:29
491,Riyadh,24.6877,46.7219,311.23,8,0,6.69,SA,2021-09-08 06:45:33
492,Waddan,29.1614,16.139,297.59,65,0,1.4,LY,2021-09-08 06:42:10
493,Awjilah,29.1081,21.2869,301.02,44,0,3.73,LY,2021-09-08 06:49:19
494,Trelew,-43.249,-65.3051,281.97,89,1,1.15,AR,2021-09-08 06:49:19
495,Eirunepe,-6.6603,-69.8736,295.55,88,20,1.12,BR,2021-09-08 06:49:20
496,Kaduy,59.2,37.15,284.17,93,100,4.64,RU,2021-09-08 06:49:20
497,Matadi,-5.8167,13.45,298.66,74,90,1.68,CD,2021-09-08 06:49:20
498,Peniche,39.3558,-9.3811,293.86,93,14,4.05,PT,2021-09-08 06:49:21
499,Lasa,46.6166,10.7002,290.64,82,22,1.19,IT,2021-09-08 06:42:29
500,Ouallam,14.3188,2.0866,299.81,64,97,4.0,NE,2021-09-08 06:49:21
501,Korla,41.7597,86.1469,305.66,15,0,4.0,CN,2021-09-08 06:42:23
502,El Retorno,2.3302,-72.6276,293.38,99,95,0.08,CO,2021-09-08 06:49:22
503,Leh,34.1667,77.5833,294.22,25,90,1.42,IN,2021-09-08 06:49:22
504,Larsnes,62.2028,5.5773,290.38,91,100,6.72,NO,2021-09-08 06:49:22
505,Port Said,31.2565,32.2841,300.14,69,20,2.57,EG,2021-09-08 06:49:23
506,Aquin,18.2833,-73.4,299.06,83,0,0.47,HT,2021-09-08 06:49:23
507,Gurupi,-11.7292,-49.0686,299.52,50,11,1.8,BR,2021-09-08 06:49:23
508,Rocha,-34.4833,-54.3333,286.22,95,100,9.55,UY,2021-09-08 06:42:16
509,Tolbazy,54.0241,55.8825,285.57,46,29,6.88,RU,2021-09-08 06:40:31
510,Yining,29.0361,114.5636,303.39,61,94,1.82,CN,2021-09-08 06:41:20
511,Tashla,51.7716,52.7427,287.28,43,100,6.05,RU,2021-09-08 06:49:24
512,Harstad,68.799,16.5293,284.81,90,100,3.93,NO,2021-09-08 06:49:24
513,Walvis Bay,-22.9575,14.5053,284.31,100,90,4.12,NA,2021-09-08 06:41:06
514,Marzuq,14.4,46.4667,306.82,20,53,3.69,YE,2021-09-08 06:49:25
515,Skole,49.0372,23.5135,290.76,49,14,0.81,UA,2021-09-08 06:49:25
516,Altay,47.8667,88.1167,300.85,19,0,3.49,CN,2021-09-08 06:49:26
517,Kolda,12.8833,-14.95,296.32,100,84,0.0,SN,2021-09-08 06:49:26
518,Meulaboh,4.1363,96.1285,300.58,75,100,1.82,ID,2021-09-08 06:49:27
519,Zhezkazgan,47.8043,67.7144,294.39,44,58,9.93,KZ,2021-09-08 06:49:27
520,Abrau-Dyurso,44.69,37.59,289.85,53,0,7.13,RU,2021-09-08 06:49:28
521,Sergeyevka,53.88,67.4158,286.62,50,94,6.38,KZ,2021-09-08 06:49:28
522,Bud,39.447,-86.1758,293.78,87,100,5.39,US,2021-09-08 06:49:29
523,Ilhabela,-23.7781,-45.3581,293.79,92,100,5.59,BR,2021-09-08 06:49:29
524,Lima,-12.0432,-77.0282,288.65,87,90,3.09,PE,2021-09-08 06:45:08
525,Mercedes,-34.6515,-59.4307,288.62,99,100,2.83,AR,2021-09-08 06:49:29
526,Ipameri,-17.7219,-48.1597,296.74,35,6,3.59,BR,2021-09-08 06:49:30
527,Bereda,43.2686,-7.5406,291.16,87,100,2.48,ES,2021-09-08 06:43:22
528,Borba,-4.3878,-59.5939,297.68,67,27,0.43,BR,2021-09-08 06:49:30
529,Tralee,52.2704,-9.7026,288.78,92,34,2.88,IE,2021-09-08 06:49:31
530,Santa Cruz,-17.8,-63.1667,298.85,73,75,6.69,BO,2021-09-08 06:48:28
531,Les Herbiers,46.8667,-1.0167,291.99,90,73,1.78,FR,2021-09-08 06:49:31
532,San Joaquin,37.9333,-121.3011,301.11,42,1,1.54,US,2021-09-08 06:49:31
533,Yaguajay,22.3272,-79.2378,297.57,90,1,2.79,CU,2021-09-08 06:49:32
534,Baffa,34.4378,73.2194,300.74,72,81,2.23,PK,2021-09-08 06:49:32
535,Savelugu,9.6244,-0.8253,297.06,89,100,1.35,GH,2021-09-08 06:49:33
536,Manono,-7.3,27.4167,300.86,58,99,2.62,CD,2021-09-08 06:49:33
537,Havre-Saint-Pierre,50.2334,-63.5986,282.35,100,1,1.03,CA,2021-09-08 06:49:33
538,Yarmouth,41.7057,-70.2286,294.87,82,1,1.34,US,2021-09-08 06:43:26
539,Kovur,14.4833,79.9833,308.99,37,100,6.8,IN,2021-09-08 06:49:34
540,Santo Domingo,18.5001,-69.9886,296.97,92,1,1.92,DO,2021-09-08 06:45:01
541,Dahuk,36.8695,42.994,307.0,12,0,2.58,IQ,2021-09-08 06:49:34
542,Luderitz,-26.6481,15.1594,291.94,34,0,1.91,NA,2021-09-08 06:40:33
543,Tazmalt,36.3868,4.3989,302.45,34,99,2.15,DZ,2021-09-08 06:49:35
544,Balao,-2.9167,-79.8167,294.65,89,98,2.09,EC,2021-09-08 06:49:35
545,Ust-Kulom,61.6864,53.6902,280.82,71,90,3.09,RU,2021-09-08 06:49:35
546,Firminy,45.3873,4.2907,292.16,88,0,3.6,FR,2021-09-08 06:49:36
547,Luena,-11.7833,19.9167,292.25,77,0,3.6,AO,2021-09-08 06:49:36
548,Kobryn,52.2138,24.3564,283.12,59,41,1.39,BY,2021-09-08 06:49:36
549,San Carlos De Bariloche,-41.1456,-71.3082,273.01,86,0,2.06,AR,2021-09-08 06:48:16
550,Porbandar,21.6422,69.6093,301.14,94,90,5.14,IN,2021-09-08 06:49:37
551,Ajdabiya,30.7554,20.2263,298.87,51,0,2.21,LY,2021-09-08 06:49:37
552,Muisne,0.6,-80.0333,296.65,88,100,5.09,EC,2021-09-08 06:49:38
553,Goundi,9.3627,17.366,297.44,86,100,1.51,TD,2021-09-08 06:49:38
554,Kanniyakumari,8.0833,77.5667,302.15,71,7,9.67,IN,2021-09-08 06:49:38
555,Barberton,-25.7884,31.0532,286.45,80,100,0.79,ZA,2021-09-08 06:49:39
556,Sainte-Marie,-20.8968,55.5496,298.24,61,0,8.23,RE,2021-09-08 06:49:39
557,Dwarka,22.2394,68.9678,301.62,82,100,5.65,IN,2021-09-08 06:40:27
558,Hattiesburg,31.3271,-89.2903,296.84,96,1,0.0,US,2021-09-08 06:49:39
559,Ballina,-28.8667,153.5667,294.25,63,2,5.66,AU,2021-09-08 06:41:48
560,San Cristobal,7.7669,-72.225,291.54,83,99,0.72,VE,2021-09-08 06:41:36
561,Corleone,37.8134,13.3017,294.81,60,61,0.45,IT,2021-09-08 06:49:40
562,Zabid,14.1951,43.3152,306.96,57,45,1.61,YE,2021-09-08 06:49:40
563,Skagen,57.7209,10.5839,290.29,92,68,7.46,DK,2021-09-08 06:49:41
564,Namwala,-15.7504,26.4384,298.5,28,0,5.08,ZM,2021-09-08 06:49:41
565,Azua,18.4532,-70.7349,298.0,81,24,1.91,DO,2021-09-08 06:45:02
566,Aleksandrovsk,59.158,57.5624,282.48,99,100,4.15,RU,2021-09-08 06:49:42
567,Ormara,25.2088,64.6357,300.85,80,100,5.94,PK,2021-09-08 06:49:42
568,Lukulu,-14.3707,23.242,300.76,15,0,4.72,ZM,2021-09-08 06:49:42
569,Notre-Dame-Du-Lac,47.6136,-68.7964,285.84,97,7,1.47,CA,2021-09-08 06:49:43
