City_ID,City,Lat,Lng,Max Temp,Humidity,Cloudiness,Wind Speed,Country,Date
0,Mar Del Plata,-38.0023,-57.5575,51.82,100,90,18.41,AR,2021-09-08 08:09:09
1,Tasiilaq,65.6145,-37.6368,44.76,57,0,12.1,GL,2021-09-08 08:16:14
2,Nanortalik,60.1432,-45.2371,44.98,70,100,3.6,GL,2021-09-08 08:16:14
3,Ihosy,-22.4,46.1167,80.89,34,0,3.2,MG,2021-09-08 08:16:15
4,Vardo,70.3705,31.1107,41.2,75,75,6.91,NO,2021-09-08 08:16:15
5,Tres Arroyos,-38.3739,-60.2798,48.76,96,100,19.57,AR,2021-09-08 08:16:15
6,Port Elizabeth,-33.918,25.5701,69.1,63,0,5.75,ZA,2021-09-08 08:16:16
7,Pichayevo,53.2363,42.2032,60.67,47,100,14.56,RU,2021-09-08 08:16:16
8,La Rioja,42.25,-2.5,66.04,53,84,0.65,ES,2021-09-08 08:16:17
9,Narsaq,60.9167,-46.05,41.22,59,88,3.8,GL,2021-09-08 08:16:17
10,Beachwood,41.4645,-81.5087,72.91,72,90,1.01,US,2021-09-08 08:15:50
11,Umm Kaddadah,13.6017,26.6876,87.28,48,100,7.36,SD,2021-09-08 08:16:17
12,Zurrieq,35.8311,14.4742,78.96,57,20,4.61,MT,2021-09-08 08:16:18
13,Arraial Do Cabo,-22.9661,-42.0278,69.01,81,91,22.37,BR,2021-09-08 08:16:18
14,Upernavik,72.7868,-56.1549,33.91,66,100,13.13,GL,2021-09-08 08:16:18
15,Busselton,-33.65,115.3333,68.09,88,81,12.66,AU,2021-09-08 08:16:19
16,Bilma,18.6853,12.9164,91.11,37,65,4.65,NE,2021-09-08 08:16:19
17,Nouadhibou,20.931,-17.0347,73.38,88,10,3.44,MR,2021-09-08 08:16:20
18,Nova Vicosa,-17.8919,-39.3719,72.23,87,100,9.48,BR,2021-09-08 08:16:20
19,Kulhudhuffushi,6.6221,73.07,82.53,71,100,13.51,MV,2021-09-08 08:16:21
20,Rawson,-43.3002,-65.1023,48.85,89,2,4.27,AR,2021-09-08 08:16:21
21,Jamestown,42.097,-79.2353,71.19,84,90,7.0,US,2021-09-08 08:16:21
22,Brae,60.3964,-1.353,57.11,93,99,9.6,GB,2021-09-08 08:16:22
23,Mahebourg,-20.4081,57.7,73.69,68,75,14.97,MU,2021-09-08 08:16:22
24,Berga,60.392,5.328,62.65,95,90,9.22,NO,2021-09-08 08:16:22
25,Sao Geraldo Do Araguaia,-6.4006,-48.555,74.71,79,3,3.89,BR,2021-09-08 08:16:23
26,Fairmont,39.4851,-80.1426,68.58,94,18,4.81,US,2021-09-08 08:16:23
27,Cape Town,-33.9258,18.4232,61.12,82,20,1.99,ZA,2021-09-08 08:14:50
28,Ushuaia,-54.8,-68.3,40.84,90,95,9.28,AR,2021-09-08 08:11:32
29,Victoria,22.2855,114.1577,89.65,72,28,9.37,HK,2021-09-08 08:14:35
30,Macusani,-14.0833,-70.4333,36.64,86,50,4.32,PE,2021-09-08 08:16:24
31,Longyearbyen,78.2186,15.6401,35.44,60,75,2.3,SJ,2021-09-08 08:16:25
32,Sao Felix Do Xingu,-6.6447,-51.995,70.61,96,6,1.99,BR,2021-09-08 08:16:25
33,Hithadhoo,-0.6,73.0833,82.99,71,44,6.78,MV,2021-09-08 08:16:26
34,Lebu,-37.6167,-73.65,44.91,82,0,4.32,CL,2021-09-08 08:16:26
35,Talnakh,69.4865,88.3972,53.04,55,100,4.81,RU,2021-09-08 08:16:26
36,Eydhafushi,5.1033,73.0708,82.74,69,99,11.7,MV,2021-09-08 08:16:27
37,Paracuru,-3.41,-39.0306,78.12,77,99,13.78,BR,2021-09-08 08:16:27
38,Paragominas,-2.9667,-47.4833,69.39,99,25,2.84,BR,2021-09-08 08:16:28
39,Hermanus,-34.4187,19.2345,60.91,74,3,4.0,ZA,2021-09-08 08:16:28
40,Ribeira Grande,38.5167,-28.7,68.4,88,40,3.44,PT,2021-09-08 08:16:28
41,Hoyerswerda,51.4333,14.25,70.25,72,33,6.04,DE,2021-09-08 08:16:29
42,Saint-Augustin,51.226,-58.6502,54.93,89,85,12.35,CA,2021-09-08 08:16:29
43,Bengkulu,-3.8004,102.2655,77.95,85,100,6.96,ID,2021-09-08 08:16:29
44,Saint Anthony,45.0205,-93.218,63.82,65,1,8.01,US,2021-09-08 08:16:30
45,Touros,-5.1989,-35.4608,72.5,88,55,10.71,BR,2021-09-08 08:15:25
46,Mpika,-11.8343,31.4529,78.46,31,0,11.34,ZM,2021-09-08 08:16:31
47,Qaanaaq,77.484,-69.3632,12.65,69,26,9.24,GL,2021-09-08 08:16:31
48,Dikson,73.5069,80.5464,44.17,80,100,14.0,RU,2021-09-08 08:16:31
49,Ostrovnoy,68.0531,39.5131,43.72,67,98,2.46,RU,2021-09-08 08:16:32
50,La Macarena,2.1837,-73.7849,69.51,99,100,0.92,CO,2021-09-08 08:16:32
51,Souillac,-20.5167,57.5167,73.78,68,75,14.97,MU,2021-09-08 08:16:33
52,Saint-Leu,-21.15,55.2833,76.06,62,34,3.6,RE,2021-09-08 08:16:33
53,Aksarka,66.5606,67.7975,48.87,51,95,12.93,RU,2021-09-08 08:16:33
54,East London,-33.0153,27.9116,63.77,45,0,4.29,ZA,2021-09-08 08:16:34
55,Krasnoborsk,61.5598,45.934,51.55,88,94,8.63,RU,2021-09-08 08:16:34
56,Tabou,4.423,-7.3528,77.79,86,21,2.53,CI,2021-09-08 08:16:34
57,Lukovetskiy,64.2956,41.9211,49.98,99,100,7.52,RU,2021-09-08 08:16:35
58,Punta Arenas,-53.15,-70.9167,44.71,70,0,12.66,CL,2021-09-08 08:15:20
59,Havelock,34.8791,-76.9013,77.95,95,32,3.38,US,2021-09-08 08:16:35
60,Mamlyutka,54.9375,68.5394,57.22,41,64,13.15,KZ,2021-09-08 08:16:36
61,Sinop,41.7711,34.8709,64.83,50,0,5.91,TR,2021-09-08 08:16:36
62,Namibe,-15.1961,12.1522,68.94,81,63,4.54,AO,2021-09-08 08:16:36
63,Caravelas,-17.7125,-39.2481,72.1,87,91,7.58,BR,2021-09-08 08:16:37
64,Elizabeth City,36.2946,-76.2511,73.98,97,1,0.0,US,2021-09-08 08:16:37
65,Bredasdorp,-34.5322,20.0403,60.28,77,6,6.91,ZA,2021-09-08 08:16:37
66,Potiskum,11.7091,11.0694,79.41,65,9,9.33,NG,2021-09-08 08:16:38
67,Vila Velha,-20.3297,-40.2925,71.55,88,75,3.44,BR,2021-09-08 08:16:39
68,Saint-Philippe,-21.3585,55.7679,76.59,67,43,14.88,RE,2021-09-08 08:16:39
69,Klaksvik,62.2266,-6.589,50.92,94,100,12.33,FO,2021-09-08 08:16:39
70,Nantucket,41.2835,-70.0995,71.1,90,1,5.75,US,2021-09-08 08:16:23
71,Faya,18.3851,42.4509,84.72,12,67,18.05,SA,2021-09-08 08:16:40
72,Port Alfred,-33.5906,26.891,64.56,43,7,6.69,ZA,2021-09-08 08:16:40
73,Misratah,32.3754,15.0925,79.72,58,6,9.04,LY,2021-09-08 08:16:41
74,Maniitsoq,65.4167,-52.9,40.23,77,80,8.39,GL,2021-09-08 08:16:41
75,Gobabis,-22.45,18.9667,68.83,8,6,11.7,NA,2021-09-08 08:16:41
76,Kruisfontein,-34.0033,24.7314,66.88,36,30,8.61,ZA,2021-09-08 08:16:42
77,Richards Bay,-28.783,32.0377,62.08,79,97,3.65,ZA,2021-09-08 08:16:42
78,Mantenopolis,-18.8625,-41.1228,64.58,84,78,4.38,BR,2021-09-08 08:16:42
79,Taoudenni,22.6783,-3.9836,100.53,9,29,11.48,ML,2021-09-08 08:16:43
80,Severnoye,56.3491,78.3619,60.31,52,100,2.98,RU,2021-09-08 08:16:43
81,Oshkosh,44.0247,-88.5426,60.89,76,1,1.99,US,2021-09-08 08:16:44
82,Male,4.1748,73.5089,82.67,69,86,9.89,MV,2021-09-08 08:16:44
83,Tamsweg,47.1281,13.811,63.43,64,7,6.29,AT,2021-09-08 08:16:44
84,Yazman,29.1212,71.7446,100.74,36,89,10.89,PK,2021-09-08 08:16:45
85,Novi Ligure,44.7608,8.7896,77.83,65,12,1.99,IT,2021-09-08 08:16:45
86,Nerekhta,57.4588,40.5747,57.09,81,100,14.5,RU,2021-09-08 08:16:46
87,Ilulissat,69.2167,-51.1,30.22,74,20,0.0,GL,2021-09-08 08:16:46
88,Dakar,14.6937,-17.4441,79.68,78,33,5.82,SN,2021-09-08 08:14:31
89,Gbarnga,6.9956,-9.4722,72.75,97,66,0.72,LR,2021-09-08 08:16:46
90,Tome,-36.6167,-72.95,39.81,85,0,5.44,CL,2021-09-08 08:16:47
91,Olivet,47.8622,1.8991,74.95,61,0,1.01,FR,2021-09-08 08:16:47
92,Cidreira,-30.1811,-50.2056,63.63,91,100,29.91,BR,2021-09-08 08:16:47
93,Balkhash,46.844,74.9804,88.41,18,0,17.9,KZ,2021-09-08 08:16:48
94,Virginia Beach,36.8529,-75.978,75.02,94,1,0.0,US,2021-09-08 08:16:48
95,Nuuk,64.1835,-51.7216,43.41,87,90,4.61,GL,2021-09-08 08:16:48
96,Ghugus,19.9333,79.1333,82.8,77,88,10.04,IN,2021-09-08 08:16:49
97,Adre,13.4667,22.2,81.1,65,43,8.34,TD,2021-09-08 08:16:49
98,Sao Filipe,14.8961,-24.4956,77.99,82,100,12.33,CV,2021-09-08 08:16:49
99,Qasigiannguit,68.8193,-51.1922,30.45,75,21,4.54,GL,2021-09-08 08:16:50
100,Quatre Cocos,-20.2078,57.7625,73.51,59,56,16.42,MU,2021-09-08 08:16:50
101,Praia Da Vitoria,38.7333,-27.0667,68.76,88,40,4.45,PT,2021-09-08 08:16:51
102,Aller,43.1187,-5.5839,60.26,68,15,3.71,ES,2021-09-08 08:16:51
103,Wells,51.2079,-2.649,72.1,75,100,10.38,GB,2021-09-08 08:15:19
104,Torbay,47.6666,-52.7314,60.28,95,20,23.02,CA,2021-09-08 08:16:52
105,Codrington,-38.2667,141.9667,57.42,68,2,10.38,AU,2021-09-08 08:16:52
106,Cockburn Town,21.4612,-71.1419,82.22,73,0,10.6,TC,2021-09-08 08:16:52
107,Manyana,-23.4,21.7167,70.74,10,0,9.15,BW,2021-09-08 08:16:53
108,Kismayo,-0.3582,42.5454,82.0,67,86,17.92,SO,2021-09-08 08:16:53
109,San Lorenzo,-25.3333,-57.5333,70.74,88,90,18.41,PY,2021-09-08 08:12:52
110,Clyde River,70.4692,-68.5914,29.44,81,95,5.55,CA,2021-09-08 08:16:54
111,Yadrin,55.9405,46.2062,53.13,85,100,12.08,RU,2021-09-08 08:16:54
112,Boffa,10.1667,-14.0333,76.21,91,21,3.36,GN,2021-09-08 08:16:54
113,Hendek,40.7994,30.7481,70.12,46,1,4.21,TR,2021-09-08 08:16:55
114,Balkanabat,39.5108,54.3671,84.04,30,0,5.37,TM,2021-09-08 08:16:55
115,Chuy,-33.6971,-53.4616,56.34,95,100,24.79,UY,2021-09-08 08:16:55
116,Diamantino,-14.4086,-56.4461,77.94,52,17,3.53,BR,2021-09-08 08:16:56
117,Carnarvon,-24.8667,113.6333,76.53,45,6,12.1,AU,2021-09-08 08:16:56
118,Koani,-6.1333,39.2833,81.88,62,80,9.44,TZ,2021-09-08 08:16:56
119,Cacheu,12.2706,-16.1658,77.09,89,100,4.34,GW,2021-09-08 08:16:57
120,Muros,42.7762,-9.0603,68.99,92,93,13.24,ES,2021-09-08 08:16:57
121,Neyshabur,36.2133,58.7958,84.38,18,0,3.71,IR,2021-09-08 08:16:57
122,Dingle,10.9995,122.6711,82.13,82,82,10.76,PH,2021-09-08 08:16:58
123,Saint George,37.1041,-113.5841,81.95,16,1,1.01,US,2021-09-08 08:15:20
124,Nikolsk,53.7189,46.0712,51.48,78,100,13.4,RU,2021-09-08 08:16:58
125,Laguna,38.421,-121.4238,83.77,53,1,5.75,US,2021-09-08 08:16:59
126,Belmonte,-15.8631,-38.8828,70.3,94,23,5.77,BR,2021-09-08 08:16:59
127,Laje,-10.1833,-40.9667,64.71,92,54,8.77,BR,2021-09-08 08:16:59
128,Georgetown,5.4112,100.3354,77.9,91,40,4.61,MY,2021-09-08 08:13:45
129,Los Llanos De Aridane,28.6585,-17.9182,71.35,73,20,11.5,ES,2021-09-08 08:17:00
130,Salinopolis,-0.6136,-47.3561,78.35,83,24,9.8,BR,2021-09-08 08:17:00
131,Caucasia,7.9865,-75.1935,72.86,97,99,2.35,CO,2021-09-08 08:17:01
132,Hambantota,6.1241,81.1185,87.89,62,9,24.25,LK,2021-09-08 08:17:01
133,Bonavista,48.6499,-53.1147,61.12,88,48,18.07,CA,2021-09-08 08:15:58
134,Coihaique,-45.5752,-72.0662,44.55,70,0,2.3,CL,2021-09-08 08:17:02
135,Bubaque,11.2833,-15.8333,79.74,85,100,9.37,GW,2021-09-08 08:17:02
136,Oranjemund,-28.55,16.4333,69.39,26,0,10.69,NA,2021-09-08 08:17:02
137,Malakal,9.5334,31.6605,78.46,85,100,5.46,SS,2021-09-08 08:17:03
138,Pisco,-13.7,-76.2167,60.03,88,18,2.3,PE,2021-09-08 08:17:03
139,Acari,-15.4311,-74.6158,60.78,89,76,5.68,PE,2021-09-08 08:17:04
140,Bassar,9.25,0.7833,75.43,87,100,2.04,TG,2021-09-08 08:17:04
141,Soyo,-6.1349,12.3689,76.51,81,100,3.58,AO,2021-09-08 08:17:05
142,Blagoyevo,63.3667,47.9167,49.28,65,73,7.92,RU,2021-09-08 08:17:05
143,Valdivia,-39.8142,-73.2459,39.29,98,25,1.83,CL,2021-09-08 08:17:05
144,Elat,29.5581,34.9482,87.64,42,0,10.36,IL,2021-09-08 08:14:57
145,Chopda,21.25,75.3,86.58,74,100,7.7,IN,2021-09-08 08:17:06
146,Saint-Pierre,-21.3393,55.4781,76.68,58,0,17.27,RE,2021-09-08 08:17:06
147,Kavaratti,10.5669,72.642,81.95,79,99,17.18,IN,2021-09-08 08:17:07
148,Necochea,-38.5473,-58.7368,50.2,95,100,21.5,AR,2021-09-08 08:13:02
149,Niksar,40.5917,36.9517,66.42,41,0,4.59,TR,2021-09-08 08:17:07
150,Hwange,-18.3693,26.5019,82.92,23,0,9.86,ZW,2021-09-08 08:17:08
151,Saldanha,-33.0117,17.9442,58.66,73,29,14.2,ZA,2021-09-08 08:14:17
152,Iaciara,-14.0958,-46.6317,74.14,36,9,3.83,BR,2021-09-08 08:17:08
153,Aksu,41.1231,80.2644,91.81,14,0,7.07,CN,2021-09-08 08:17:08
154,Monte Patria,-30.6919,-70.9467,47.01,55,0,1.88,CL,2021-09-08 08:17:09
155,Killin,33.6123,-91.7412,64.35,94,1,0.0,US,2021-09-08 08:17:09
156,Ovre Ardal,61.3167,7.8,58.08,99,100,4.83,NO,2021-09-08 08:17:09
157,Sirumugai,11.3333,77.0167,87.37,52,100,6.35,IN,2021-09-08 08:17:10
158,Tobermory,45.2501,-81.6665,54.3,77,0,13.96,CA,2021-09-08 08:17:10
159,Kamenka,51.3223,42.7678,60.26,40,99,12.64,RU,2021-09-08 08:17:11
160,Ostersund,63.1792,14.6357,57.65,77,75,16.11,SE,2021-09-08 08:17:11
161,Carutapera,-1.195,-46.02,77.58,83,30,7.67,BR,2021-09-08 08:17:11
162,Viedma,-40.8135,-62.9967,47.95,94,100,8.23,AR,2021-09-08 08:17:12
163,Serenje,-13.2325,30.2352,78.24,29,0,11.97,ZM,2021-09-08 08:17:12
164,Salalah,17.0151,54.0924,84.29,84,75,11.5,OM,2021-09-08 08:17:12
165,Lere,10.387,8.5726,72.63,78,53,4.14,NG,2021-09-08 08:17:13
166,Olafsvik,64.8945,-23.7142,49.93,76,100,13.71,IS,2021-09-08 08:17:13
167,Ponta Do Sol,32.6667,-17.1,74.12,77,25,0.96,PT,2021-09-08 08:17:13
168,Nouakchott,18.0858,-15.9785,80.53,80,47,5.75,MR,2021-09-08 08:17:14
169,Boden,65.8252,21.6886,55.4,59,99,13.06,SE,2021-09-08 08:17:14
170,Abu Samrah,35.3029,37.1841,83.17,36,0,9.4,SY,2021-09-08 08:17:15
171,Chambas,22.1928,-78.9136,73.24,93,1,3.69,CU,2021-09-08 08:17:15
172,Harper,4.375,-7.7169,78.13,83,79,3.31,LR,2021-09-08 08:17:15
173,Koroni,36.8,21.95,71.08,66,97,6.02,GR,2021-09-08 08:17:16
174,Bangassou,4.7413,22.8184,79.99,61,99,0.87,CF,2021-09-08 08:17:16
175,Pangnirtung,66.1451,-65.7125,37.31,58,35,2.98,CA,2021-09-08 08:17:17
176,Zyryanovsk,49.7386,84.2719,91.17,17,0,6.06,KZ,2021-09-08 08:17:17
177,Raga,8.4596,25.678,82.26,62,9,3.27,SS,2021-09-08 08:17:17
178,Mogadishu,2.0371,45.3438,80.42,76,40,18.41,SO,2021-09-08 08:17:18
179,Stranda,62.3096,6.9358,61.34,95,100,5.91,NO,2021-09-08 08:17:18
180,Garissa,-0.4536,39.6401,87.04,42,48,21.92,KE,2021-09-08 08:17:18
181,Buraydah,26.326,43.975,102.7,9,0,9.55,SA,2021-09-08 08:13:38
182,Cayenne,4.9333,-52.3333,80.1,88,0,1.14,GF,2021-09-08 08:17:19
183,Beira,-19.8436,34.8389,78.89,78,40,10.36,MZ,2021-09-08 08:17:19
184,Morondava,-20.2833,44.2833,79.72,48,0,7.52,MG,2021-09-08 08:17:20
185,Le Vauclin,14.5452,-60.8388,75.25,94,0,3.44,MQ,2021-09-08 08:17:20
186,Wajir,1.7471,40.0573,86.99,38,41,20.94,KE,2021-09-08 08:17:20
187,Gamba,-2.65,10.0,80.04,66,85,1.95,GA,2021-09-08 08:17:21
188,Dolores,-36.3132,-57.6792,54.64,91,100,22.88,AR,2021-09-08 08:17:21
189,Montigny-Les-Metz,49.0943,6.1517,74.48,68,0,11.5,FR,2021-09-08 08:17:22
190,Cacoal,-11.4386,-61.4472,77.9,58,34,1.25,BR,2021-09-08 08:17:22
191,Hammerfest,70.6634,23.6821,47.93,87,75,0.0,NO,2021-09-08 08:17:22
192,Oistins,13.0667,-59.5333,82.49,78,40,12.66,BB,2021-09-08 08:14:15
193,Jaisinghnagar,23.7,81.3833,84.25,69,67,7.7,IN,2021-09-08 08:17:23
194,Kabompo,-13.5927,24.2008,87.73,14,0,8.46,ZM,2021-09-08 08:17:23
195,Uvat,59.1433,68.8953,56.26,38,40,10.42,RU,2021-09-08 08:17:24
196,Skiathos,39.1623,23.4909,69.96,73,75,17.27,GR,2021-09-08 08:17:24
197,Voi,-3.3945,38.563,81.34,44,35,12.1,KE,2021-09-08 08:17:24
198,Rimini,44.0241,12.5186,77.63,60,0,7.0,IT,2021-09-08 08:17:25
199,Marrakesh,31.6315,-8.0083,78.87,61,40,2.3,MA,2021-09-08 08:17:25
200,Kilindoni,-7.9139,39.6668,78.89,73,5,11.92,TZ,2021-09-08 08:17:25
201,Beyneu,45.3167,55.2,67.23,26,0,14.52,KZ,2021-09-08 08:17:26
202,Gat,31.61,34.7642,88.39,42,0,5.64,IL,2021-09-08 08:17:26
203,Cap Malheureux,-19.9842,57.6142,73.89,71,44,10.0,MU,2021-09-08 08:17:27
204,Bara,10.3744,10.7288,82.18,77,55,8.7,NG,2021-09-08 08:17:27
205,Gravdal,68.1214,13.5031,53.28,87,75,14.97,NO,2021-09-08 08:17:27
206,Chilca,-12.5211,-76.7372,60.6,91,97,3.29,PE,2021-09-08 08:17:28
207,Zlobin,45.2924,14.6541,69.1,29,0,9.22,HR,2021-09-08 08:17:28
208,Los Algarrobos,8.5,-82.4333,77.45,90,100,1.86,PA,2021-09-08 08:17:28
209,Hamilton,39.1834,-84.5333,70.57,87,40,1.01,US,2021-09-08 08:16:55
210,Kemijarvi,66.7131,27.4306,52.43,86,93,8.61,FI,2021-09-08 08:17:29
211,Victoria Falls,-17.9235,25.843,86.0,21,0,11.32,ZW,2021-09-08 08:17:29
212,Bambous Virieux,-20.3428,57.7575,73.65,68,75,14.97,MU,2021-09-08 08:17:29
213,Sechura,-5.5569,-80.8222,64.09,80,99,10.4,PE,2021-09-08 08:17:30
214,Oudtshoorn,-33.5907,22.2014,66.56,37,49,1.81,ZA,2021-09-08 08:17:30
215,Antigonish,45.6169,-61.9986,61.83,92,0,1.01,CA,2021-09-08 08:17:31
216,Kutum,14.2,24.6667,82.94,42,20,3.91,SD,2021-09-08 08:17:31
217,Puerto Carreno,6.189,-67.4859,74.34,94,100,3.18,CO,2021-09-08 08:12:45
218,Vila Franca Do Campo,37.7167,-25.4333,68.41,83,100,2.06,PT,2021-09-08 08:17:31
219,Tambura,5.6,27.4667,80.31,63,73,4.5,SS,2021-09-08 08:17:32
220,Kauhajoki,62.4333,22.1833,58.98,93,100,10.45,FI,2021-09-08 08:17:32
221,Porto Nacional,-10.7081,-48.4172,75.2,48,29,5.59,BR,2021-09-08 08:17:32
222,Castro,-24.7911,-50.0119,56.8,96,88,6.67,BR,2021-09-08 08:17:33
223,Alibag,18.6411,72.8792,84.18,95,100,17.0,IN,2021-09-08 08:17:33
224,Suoyarvi,62.0833,32.35,54.55,93,100,9.42,RU,2021-09-08 08:17:34
225,Cayeli,41.0923,40.7292,66.94,89,100,4.29,TR,2021-09-08 08:17:34
226,Jaszszentlaszlo,46.5668,19.7607,72.95,58,0,4.27,HU,2021-09-08 08:17:34
227,Bathsheba,13.2167,-59.5167,83.01,78,40,12.66,BB,2021-09-08 08:17:35
228,Mastic Beach,40.7668,-72.8521,71.98,86,1,10.0,US,2021-09-08 08:17:35
229,Amapa,1.0,-52.0,69.73,100,100,0.43,BR,2021-09-08 08:13:15
230,Iqaluit,63.7506,-68.5145,33.53,86,1,3.44,CA,2021-09-08 08:17:35
231,Tatawin,32.9297,10.4518,79.68,55,5,3.33,TN,2021-09-08 08:17:36
232,Hofn,64.2539,-15.2082,46.42,93,90,6.91,IS,2021-09-08 08:17:36
233,Opuwo,-18.0607,13.84,81.34,13,1,3.94,NA,2021-09-08 08:17:37
234,El Alto,-4.2714,-81.2147,62.33,83,10,15.28,PE,2021-09-08 08:17:37
235,Raudeberg,61.9875,5.1352,60.4,94,100,3.0,NO,2021-09-08 08:17:37
236,Sept-Iles,50.2001,-66.3821,51.06,95,1,2.3,CA,2021-09-08 08:17:38
237,La Asuncion,11.0333,-63.8628,79.43,88,98,11.61,VE,2021-09-08 08:14:59
238,Santa Rosa,14.3122,121.1114,77.86,89,100,24.16,PH,2021-09-08 08:17:38
239,Saint-Francois,46.4154,3.9054,71.19,73,0,2.3,FR,2021-09-08 08:17:38
240,Port-Gentil,-0.7193,8.7815,77.29,79,37,8.14,GA,2021-09-08 08:14:16
241,Wismar,53.9,11.4667,67.12,84,43,3.0,DE,2021-09-08 08:17:39
242,Ndende,-2.4008,11.3581,82.29,57,33,2.24,GA,2021-09-08 08:17:39
243,Awbari,26.5921,12.7805,84.33,38,0,12.8,LY,2021-09-08 08:17:40
244,Banda Aceh,5.5577,95.3222,83.39,68,100,15.73,ID,2021-09-08 08:17:40
245,Pedasi,7.5333,-80.0333,78.08,85,100,5.28,PA,2021-09-08 08:17:41
246,Axim,4.8699,-2.2405,78.78,80,99,5.99,GH,2021-09-08 08:17:41
247,Tessalit,20.1986,1.0114,92.17,23,9,8.72,ML,2021-09-08 08:17:41
248,Mizdah,31.4451,12.9801,74.41,53,0,5.95,LY,2021-09-08 08:17:42
249,Lexington,37.9887,-84.4777,65.89,82,1,6.91,US,2021-09-08 08:13:03
250,Sahawar,27.8,78.85,89.28,60,89,14.34,IN,2021-09-08 08:17:42
251,Turbat,26.0023,63.044,104.52,20,100,7.72,PK,2021-09-08 08:17:42
252,Andujar,38.0392,-4.0508,73.71,74,22,7.52,ES,2021-09-08 08:17:43
253,Robe,-37.1833,139.75,57.78,77,15,15.61,AU,2021-09-08 08:17:43
254,Lagoa,39.05,-27.9833,69.67,84,100,10.63,PT,2021-09-08 08:13:46
255,Sassandra,4.95,-6.0833,76.64,87,82,3.36,CI,2021-09-08 08:17:44
256,Vikindu,-7.0067,39.2985,84.07,53,89,11.63,TZ,2021-09-08 08:17:44
257,Sistranda,63.7256,8.834,53.91,94,100,9.28,NO,2021-09-08 08:17:44
258,Agirish,61.9247,63.0231,42.03,83,99,8.08,RU,2021-09-08 08:17:45
259,Thinadhoo,0.5333,72.9333,82.81,71,95,7.45,MV,2021-09-08 08:17:45
260,Tonantins,-2.8731,-67.8022,71.67,99,100,2.64,BR,2021-09-08 08:17:45
261,Parabel,58.6978,81.4825,63.23,47,100,1.63,RU,2021-09-08 08:17:46
262,Skowhegan,44.7651,-69.7192,58.1,98,3,0.92,US,2021-09-08 08:17:46
263,Adrar,20.5022,-10.0711,90.14,25,1,6.91,MR,2021-09-08 08:17:46
264,Garowe,8.4054,48.4845,86.56,42,78,25.55,SO,2021-09-08 08:17:47
265,Rodrigues Alves,-7.738,-72.6509,72.28,87,1,1.12,BR,2021-09-08 08:17:47
266,Sao Joao Da Barra,-21.6403,-41.0511,69.84,81,100,12.97,BR,2021-09-08 08:17:48
267,Mattru,7.6244,-11.8332,74.44,95,39,1.99,SL,2021-09-08 08:17:48
268,Muscat,23.6139,58.5922,95.02,52,100,7.02,OM,2021-09-08 08:17:48
269,Ust-Tsilma,65.441,52.1498,45.18,65,100,9.8,RU,2021-09-08 08:17:49
270,Marawi,7.9986,124.2928,71.65,82,99,6.85,PH,2021-09-08 08:17:49
271,Tutoia,-2.7619,-42.2744,77.67,86,98,11.99,BR,2021-09-08 08:17:49
272,Mumford,5.2618,-0.759,76.86,85,99,7.4,GH,2021-09-08 08:17:50
273,Berlevag,70.8578,29.0864,40.95,75,75,8.05,NO,2021-09-08 08:17:50
274,Morros,-9.4467,-46.3003,71.89,38,75,5.06,BR,2021-09-08 08:17:51
275,Shache,38.4167,77.2406,93.49,11,0,8.25,CN,2021-09-08 08:17:51
276,Loubomo,-4.1997,12.6739,80.1,52,100,2.28,CG,2021-09-08 08:17:51
277,Albany,42.6001,-73.9662,65.68,88,13,5.1,US,2021-09-08 08:15:46
278,Olinda,-8.0089,-34.8553,74.93,69,75,11.5,BR,2021-09-08 08:17:52
279,Grand Gaube,-20.0064,57.6608,73.8,71,42,10.0,MU,2021-09-08 08:17:52
280,Wake Forest,35.9799,-78.5097,74.25,93,1,1.99,US,2021-09-08 08:17:52
281,Lubawa,53.5043,19.7497,65.41,57,9,6.22,PL,2021-09-08 08:17:53
282,Guisa,20.255,-76.5386,73.71,93,5,3.91,CU,2021-09-08 08:17:53
283,Bundibugyo,0.7414,30.0417,72.72,83,93,2.06,UG,2021-09-08 08:17:54
284,Plettenberg Bay,-34.0527,23.3716,65.12,41,35,3.74,ZA,2021-09-08 08:17:54
285,Marigot,18.0667,-63.0833,81.75,83,20,3.44,MF,2021-09-08 08:17:54
286,Luanda,-8.8368,13.2343,71.6,94,90,8.05,AO,2021-09-08 08:17:55
287,Sinnamary,5.3833,-52.95,78.17,86,99,8.08,GF,2021-09-08 08:17:55
288,Weligama,5.9667,80.4167,84.97,68,13,12.62,LK,2021-09-08 08:17:55
289,Harwich,51.9419,1.2844,72.54,82,46,10.16,GB,2021-09-08 08:17:56
290,Tokat,40.4167,36.5833,53.76,36,0,5.3,TR,2021-09-08 08:17:56
291,Atar,20.5169,-13.0499,91.15,35,2,4.23,MR,2021-09-08 08:17:56
292,Tukrah,32.5341,20.5791,80.31,53,0,12.46,LY,2021-09-08 08:17:57
293,Presidente Epitacio,-21.7633,-52.1156,75.36,30,23,6.93,BR,2021-09-08 08:17:57
294,Antalaha,-14.9003,50.2788,75.97,65,24,10.83,MG,2021-09-08 08:17:57
295,Lieksa,63.3167,30.0167,56.53,84,100,16.4,FI,2021-09-08 08:17:58
296,Macau,22.2006,113.5461,91.8,70,20,6.91,MO,2021-09-08 08:17:58
297,Grindavik,63.8424,-22.4338,46.87,93,75,4.61,IS,2021-09-08 08:13:15
298,Monrovia,6.3005,-10.7969,76.37,89,50,4.85,LR,2021-09-08 08:17:59
299,Annau,37.8876,58.516,85.5,28,75,18.41,TM,2021-09-08 08:17:59
300,Buchanan,5.8808,-10.0467,76.86,88,55,4.03,LR,2021-09-08 08:17:59
301,Malatya,38.5,38.0,80.65,23,0,4.61,TR,2021-09-08 08:18:00
302,Divo,5.8397,-5.36,75.81,86,76,1.59,CI,2021-09-08 08:18:00
303,Beloha,-25.1667,45.05,81.86,32,0,7.7,MG,2021-09-08 08:18:01
304,Kalundborg,55.6795,11.0886,67.12,89,44,12.06,DK,2021-09-08 08:18:01
305,Tallahassee,30.4383,-84.2807,76.93,96,1,4.61,US,2021-09-08 08:16:19
306,Sokolo,14.7328,-6.1219,83.5,60,17,12.26,ML,2021-09-08 08:18:01
307,Jijiga,9.35,42.8,72.09,63,84,18.81,ET,2021-09-08 08:18:02
308,Sarakhs,36.5449,61.1577,93.34,27,0,27.63,IR,2021-09-08 08:18:02
309,Husavik,66.0449,-17.3389,39.11,75,61,5.01,IS,2021-09-08 08:18:03
310,Sawakin,19.1059,37.3321,102.33,29,77,6.31,SD,2021-09-08 08:18:03
311,Limbe,4.0242,9.2149,79.7,78,99,3.62,CM,2021-09-08 08:18:03
312,Campagna,40.6653,15.1059,77.61,50,0,5.01,IT,2021-09-08 08:18:04
313,Rio Grande,-32.035,-52.0986,59.95,95,100,33.6,BR,2021-09-08 08:18:04
314,Olavarria,-36.8927,-60.3225,50.31,95,100,18.3,AR,2021-09-08 08:18:04
315,Samana,19.2056,-69.3369,77.52,88,9,4.29,DO,2021-09-08 08:18:05
316,Matara,5.9485,80.5353,85.93,66,12,13.38,LK,2021-09-08 08:18:05
317,Tyup,42.7276,78.3648,80.1,20,0,8.66,KG,2021-09-08 08:18:06
318,Worcester,42.3334,-71.8328,60.85,90,20,6.91,US,2021-09-08 08:18:06
319,Porto Santo,33.072,-16.3415,75.58,73,20,4.61,PT,2021-09-08 08:18:07
320,Vincennes,48.85,2.4333,71.89,63,0,1.01,FR,2021-09-08 08:18:07
321,San Ramon,37.7799,-121.978,76.5,61,1,0.0,US,2021-09-08 08:18:07
322,Petauke,-14.2426,31.3253,82.72,23,0,9.84,ZM,2021-09-08 08:18:08
323,Taltal,-25.4,-70.4833,55.26,70,0,3.62,CL,2021-09-08 08:18:08
324,Araripe,-7.2125,-40.0461,64.53,82,25,7.47,BR,2021-09-08 08:18:08
325,Chukhloma,58.7525,42.6825,52.57,90,100,10.76,RU,2021-09-08 08:18:09
326,San Borja,-14.8167,-66.85,75.58,65,69,3.04,BO,2021-09-08 08:18:09
327,Pafos,34.7667,32.4167,87.22,61,20,9.22,CY,2021-09-08 08:17:04
328,Aqtobe,50.2797,57.2072,60.89,31,0,13.42,KZ,2021-09-08 08:18:10
329,Tucurui,-3.7661,-49.6725,71.78,98,16,3.33,BR,2021-09-08 08:18:10
330,Paamiut,61.994,-49.6678,43.88,81,96,7.94,GL,2021-09-08 08:18:10
331,Asosa,10.0667,34.5333,61.66,96,100,0.98,ET,2021-09-08 08:18:11
332,Matveyevka,52.15,56.1833,59.95,33,6,15.93,RU,2021-09-08 08:18:11
333,Cairo,30.0626,31.2497,90.36,37,0,9.22,EG,2021-09-08 08:18:11
334,Krasnoselkup,65.7,82.4667,47.52,93,100,5.32,RU,2021-09-08 08:18:12
335,Dimbokro,6.6451,-4.7048,76.26,86,86,3.11,CI,2021-09-08 08:18:12
336,Tomaszow Mazowiecki,51.5313,20.0086,69.49,58,13,3.87,PL,2021-09-08 08:17:23
337,Parana,-31.732,-60.5238,55.56,96,100,15.01,AR,2021-09-08 08:18:12
338,Teya,60.3778,92.6267,64.18,46,100,5.03,RU,2021-09-08 08:18:13
339,Chlorakas,34.8042,32.4083,86.54,62,20,9.22,CY,2021-09-08 08:18:13
340,Idil,37.3411,41.8895,94.93,14,0,5.75,TR,2021-09-08 08:18:14
341,Osakarovka,50.565,72.5692,63.68,51,86,20.47,KZ,2021-09-08 08:18:14
342,Sesvete,45.8311,16.1164,71.8,52,0,4.61,HR,2021-09-08 08:18:14
343,Kita,13.0349,-9.4895,76.91,79,9,3.6,ML,2021-09-08 08:18:15
344,Margate,51.3813,1.3862,71.89,82,29,11.36,GB,2021-09-08 08:18:15
345,Sembe,1.6481,14.5806,79.52,73,86,3.87,CG,2021-09-08 08:18:15
346,Rio Gallegos,-51.6226,-69.2181,46.45,57,40,16.11,AR,2021-09-08 08:18:16
347,Bamako,12.65,-8.0,79.21,94,20,3.44,ML,2021-09-08 08:17:29
348,Nynashamn,58.9034,17.9479,62.82,81,100,15.48,SE,2021-09-08 08:18:16
349,Strezhevoy,60.7333,77.5889,48.18,53,92,6.11,RU,2021-09-08 08:18:17
350,Manitouwadge,49.1215,-85.8403,56.12,99,100,6.71,CA,2021-09-08 08:18:17
351,Phalodi,27.1333,72.3667,97.99,41,65,10.27,IN,2021-09-08 08:18:17
352,Oksfjord,70.2396,22.3479,48.38,87,97,4.68,NO,2021-09-08 08:18:18
353,Copiapo,-27.3667,-70.3333,44.29,61,2,1.21,CL,2021-09-08 08:18:18
354,Slatina,44.4333,24.3667,70.45,41,40,9.4,RO,2021-09-08 08:18:18
355,Otjimbingwe,-22.35,16.1333,78.04,12,5,11.16,NA,2021-09-08 08:18:19
356,Findlay,41.0442,-83.6499,70.72,73,90,12.66,US,2021-09-08 08:17:01
357,Tazovskiy,67.4667,78.7,49.89,65,91,2.21,RU,2021-09-08 08:18:19
358,Ilo,-17.6394,-71.3375,58.68,86,83,9.44,PE,2021-09-08 08:18:20
359,Ancud,-41.8697,-73.8203,45.43,90,28,4.5,CL,2021-09-08 08:18:20
360,Eyl,7.9803,49.8164,88.59,47,73,26.28,SO,2021-09-08 08:18:20
361,Sharjah,25.3573,55.4033,106.09,24,0,5.75,AE,2021-09-08 08:18:21
362,Strathpeffer,57.588,-4.5382,63.7,92,93,2.33,GB,2021-09-08 08:18:21
363,Umtata,-31.5889,28.7844,55.96,67,0,2.3,ZA,2021-09-08 08:18:21
364,Songadh,21.1667,73.5667,84.18,84,100,11.16,IN,2021-09-08 08:18:22
365,San Antonio,29.4241,-98.4936,79.18,84,1,0.0,US,2021-09-08 08:17:43
366,Terra Santa,-2.1042,-56.4869,75.38,73,92,3.0,BR,2021-09-08 08:18:22
367,Chancay,-11.5714,-77.2672,60.31,92,98,6.33,PE,2021-09-08 08:18:23
368,Iquique,-20.2208,-70.1431,59.04,77,66,6.93,CL,2021-09-08 08:16:44
369,Pryozerne,45.2698,36.3303,67.69,41,0,21.74,UA,2021-09-08 08:18:23
370,Lodja,-3.4833,23.4333,81.75,59,92,4.43,CD,2021-09-08 08:18:24
371,Santiago Del Estero,-27.7951,-64.2615,54.81,50,99,25.19,AR,2021-09-08 08:18:08
372,Siilinjarvi,63.0833,27.6667,57.22,82,75,12.66,FI,2021-09-08 08:18:24
373,Kibiti,-7.7218,38.9375,88.47,40,55,7.0,TZ,2021-09-08 08:18:24
374,Kodino,63.7198,39.6447,49.73,97,100,7.7,RU,2021-09-08 08:18:25
375,Labrea,-7.2586,-64.7981,77.7,66,39,2.57,BR,2021-09-08 08:18:25
376,Yafran,32.0633,12.5286,70.92,62,15,7.38,LY,2021-09-08 08:18:26
377,Burgeo,47.6167,-57.6152,58.59,92,6,13.49,CA,2021-09-08 08:15:20
378,Gummidipundi,13.4,80.15,93.2,45,99,12.93,IN,2021-09-08 08:18:26
379,Point Pedro,9.8167,80.2333,85.15,68,14,18.7,LK,2021-09-08 08:18:26
380,El Tigre,8.8875,-64.2454,73.22,92,98,6.62,VE,2021-09-08 08:18:27
381,Janauba,-15.8025,-43.3089,68.38,73,10,5.73,BR,2021-09-08 08:18:27
382,Koping,59.514,15.9926,68.18,75,100,12.91,SE,2021-09-08 08:18:28
383,Tabas,33.5959,56.9244,94.1,10,0,1.77,IR,2021-09-08 08:18:28
384,Kabinda,-6.1333,24.4833,80.53,54,100,6.29,CD,2021-09-08 08:18:28
385,Omboue,-1.5746,9.2618,79.65,68,93,3.85,GA,2021-09-08 08:18:29
386,Fereydun Kenar,36.6864,52.5225,84.51,65,89,5.93,IR,2021-09-08 08:18:29
387,Talara,-4.5772,-81.2719,64.27,83,42,16.64,PE,2021-09-08 08:18:30
388,Uarini,-2.99,-65.1083,74.41,96,100,2.3,BR,2021-09-08 08:18:30
389,Uspenka,48.3903,39.1619,65.61,29,0,3.29,UA,2021-09-08 08:18:30
390,Henties Bay,-22.116,14.2845,58.91,68,0,0.13,NA,2021-09-08 08:18:31
391,Pokaran,26.9167,71.9167,98.01,41,92,9.01,IN,2021-09-08 08:18:31
392,Kazlu Ruda,54.7667,23.5,62.58,54,13,8.72,LT,2021-09-08 08:18:31
393,North Myrtle Beach,33.816,-78.68,79.02,95,1,3.44,US,2021-09-08 08:18:11
394,Micheweni,-4.9667,39.8333,80.98,68,17,10.89,TZ,2021-09-08 08:18:32
395,Guane,22.2025,-84.0875,76.64,89,89,4.27,CU,2021-09-08 08:18:32
396,Kindia,10.0569,-12.8658,71.04,97,34,1.95,GN,2021-09-08 08:18:33
397,Yar-Sale,66.8333,70.8333,48.6,56,100,14.92,RU,2021-09-08 08:18:33
398,Hrinova,48.5779,19.5257,65.88,48,76,3.06,SK,2021-09-08 08:18:33
399,Repatriacion,-25.5333,-55.95,83.07,35,100,9.73,PY,2021-09-08 08:18:34
400,Jasper,37.2001,-94.3502,74.64,60,1,9.22,US,2021-09-08 08:18:34
401,Kalamazoo,42.2506,-85.55,64.71,94,1,4.61,US,2021-09-08 08:18:35
402,Brigantine,39.4101,-74.3646,73.99,86,0,12.17,US,2021-09-08 08:17:32
403,Vicuna,-30.0319,-70.7081,40.73,50,0,1.74,CL,2021-09-08 08:18:35
404,Clemson,34.6834,-82.8374,74.21,92,90,11.5,US,2021-09-08 08:18:35
405,Iquitos,-3.7481,-73.2472,73.44,100,0,0.0,PE,2021-09-08 08:18:36
406,Ordzhonikidze,52.4411,61.7408,58.46,29,6,15.35,KZ,2021-09-08 08:18:36
407,Sar-E Pul,35.8333,66.1667,81.59,13,0,11.41,AF,2021-09-08 08:18:37
408,Salinas,36.6777,-121.6555,73.56,88,90,4.61,US,2021-09-08 08:17:15
409,Cabedelo,-6.9811,-34.8339,74.07,83,96,13.38,BR,2021-09-08 08:18:37
410,Inongo,-1.95,18.2667,72.59,80,79,3.0,CD,2021-09-08 08:18:37
411,Sorland,67.667,12.6934,50.07,77,75,18.57,NO,2021-09-08 08:18:38
412,Grand-Lahou,5.1367,-5.0242,77.67,84,50,5.55,CI,2021-09-08 08:18:38
413,Hobyo,5.3505,48.5268,82.96,67,48,22.93,SO,2021-09-08 08:18:38
414,Altea,38.5989,-0.0514,80.38,72,100,3.91,ES,2021-09-08 08:18:39
415,Bull Savanna,17.8868,-77.5902,76.06,84,4,7.9,JM,2021-09-08 08:18:39
416,Zaysan,47.4667,84.8667,94.51,10,1,13.22,KZ,2021-09-08 08:18:40
417,Sungurlu,40.1675,34.3739,66.61,24,0,4.09,TR,2021-09-08 08:18:40
418,Sheboygan,43.7333,-87.9334,60.78,82,1,3.0,US,2021-09-08 08:18:40
419,Mafinga,-7.25,35.0667,79.68,39,1,7.25,TZ,2021-09-08 08:18:41
420,Vestmannaeyjar,63.4427,-20.2734,49.19,81,40,12.66,IS,2021-09-08 08:18:41
421,Chagoda,59.164,35.3285,52.25,93,100,11.1,RU,2021-09-08 08:18:41
422,Bay Roberts,47.5999,-53.2648,61.03,97,22,5.99,CA,2021-09-08 08:18:42
423,Iralaya,15.0,-83.2333,79.23,85,48,7.05,HN,2021-09-08 08:18:42
424,Araci,-11.3333,-38.9667,69.01,93,75,6.85,BR,2021-09-08 08:18:42
425,Nosy Varika,-20.5833,48.5333,74.86,60,40,7.83,MG,2021-09-08 08:18:43
426,Salekhard,66.53,66.6019,48.36,56,90,11.5,RU,2021-09-08 08:18:43
427,Voznesenye,61.0106,35.4781,53.51,93,100,15.12,RU,2021-09-08 08:18:44
428,Sturgeon Falls,46.3646,-79.9326,65.08,94,32,7.47,CA,2021-09-08 08:18:44
429,Itarema,-2.9248,-39.9167,77.61,75,94,15.26,BR,2021-09-08 08:18:44
430,Yendi,9.4427,-0.0099,76.75,85,100,1.54,GH,2021-09-08 08:18:45
431,Vallenar,-28.5708,-70.7581,51.06,52,0,5.14,CL,2021-09-08 08:18:45
432,Vestmanna,62.1564,-7.1664,49.12,100,90,10.36,FO,2021-09-08 08:18:45
433,Villazon,-22.0866,-65.5942,40.48,19,100,9.17,BO,2021-09-08 08:18:46
434,Palmas,-10.2128,-48.3603,75.07,83,0,5.75,BR,2021-09-08 08:14:41
435,Chimoio,-19.1164,33.4833,73.26,56,75,9.22,MZ,2021-09-08 08:18:46
436,Kayseri,38.737,35.4968,66.22,45,0,1.14,TR,2021-09-08 08:18:45
437,Sur,22.5667,59.5289,96.01,42,94,8.05,OM,2021-09-08 08:18:47
438,Barcelos,41.5388,-8.6151,69.94,92,97,7.54,PT,2021-09-08 08:17:24
439,Mehamn,71.0357,27.8492,41.18,71,100,6.11,NO,2021-09-08 08:18:47
440,Sao Borja,-28.6606,-56.0044,64.94,95,100,16.42,BR,2021-09-08 08:18:48
441,Saint-Joseph,-21.3667,55.6167,75.58,65,30,10.96,RE,2021-09-08 08:18:48
442,Svetlogorsk,52.6333,29.7333,62.58,51,56,4.92,BY,2021-09-08 08:18:49
443,Peterhead,57.5058,-1.7981,62.11,95,94,7.76,GB,2021-09-08 08:18:49
444,Aprilia,41.5895,12.6501,80.42,66,0,4.61,IT,2021-09-08 08:18:49
445,Altamira,-3.2033,-52.2064,70.65,99,84,2.68,BR,2021-09-08 08:18:50
446,Liepaja,56.5419,21.0367,64.38,77,20,18.41,LV,2021-09-08 08:18:50
447,Zhanaozen,43.3,52.8,66.87,22,100,15.86,KZ,2021-09-08 08:18:50
448,Padang,-0.9492,100.3543,80.65,72,93,5.86,ID,2021-09-08 08:18:51
449,Kommunar,59.6206,30.39,60.33,75,93,13.78,RU,2021-09-08 08:18:51
450,Martinsville,36.6915,-79.8725,70.34,100,1,0.0,US,2021-09-08 08:18:51
451,Tiruchchendur,8.4833,78.1167,100.69,55,11,18.72,IN,2021-09-08 08:18:52
452,Middle Island,40.8843,-72.9373,71.92,88,1,1.99,US,2021-09-08 08:18:52
453,Abapo,-18.8333,-63.4667,70.02,58,100,3.0,BO,2021-09-08 08:18:52
454,West Bay,19.3667,-81.4167,82.99,84,13,3.0,KY,2021-09-08 08:18:53
455,Kongolo,-5.3833,27.0,84.81,50,72,7.14,CD,2021-09-08 08:18:53
456,Malindi,-3.2175,40.1191,81.01,68,11,14.88,KE,2021-09-08 08:18:53
457,Progreso,21.2833,-89.6667,75.11,92,76,8.21,MX,2021-09-08 08:18:54
458,Salta,-24.7859,-65.4117,61.09,75,75,4.0,AR,2021-09-08 08:17:07
459,Ceres,37.5949,-120.9577,83.55,45,1,8.05,US,2021-09-08 08:18:54
460,Ondjiva,-17.0667,15.7333,82.18,16,5,6.26,AO,2021-09-08 08:18:55
461,Wageningen,51.9667,5.6667,70.23,74,42,4.61,NL,2021-09-08 08:18:55
462,Saryozek,44.3583,77.9753,89.35,11,0,10.98,KZ,2021-09-08 08:18:55
463,Humaita,-7.5061,-63.0208,76.77,62,25,2.15,BR,2021-09-08 08:18:56
464,Sinjar,36.3209,41.8754,92.79,19,0,10.13,IQ,2021-09-08 08:18:56
465,Kangaatsiaq,68.3065,-53.4641,35.62,61,1,5.97,GL,2021-09-08 08:18:56
466,Honningsvag,70.9821,25.9704,40.75,81,40,6.91,NO,2021-09-08 08:18:57
467,Charlottesville,38.0293,-78.4767,66.47,95,20,5.75,US,2021-09-08 08:18:57
468,Salisbury,51.0693,-1.7957,72.23,66,0,9.22,GB,2021-09-08 08:18:57
469,Felipe Carrillo Puerto,19.5833,-88.05,74.95,97,100,1.9,MX,2021-09-08 08:18:58
470,Butembo,0.15,29.2833,67.86,74,75,2.71,CD,2021-09-08 08:18:58
471,Porto Novo,6.4965,2.6036,82.22,75,99,6.35,BJ,2021-09-08 08:18:58
472,Roald,62.5833,6.1333,61.9,94,75,14.97,NO,2021-09-08 08:18:59
473,Coro,11.4045,-69.6734,78.24,86,58,10.09,VE,2021-09-08 08:18:59
474,Ginir,7.1333,40.7,70.54,55,77,10.16,ET,2021-09-08 08:19:00
475,Muhos,64.808,25.9931,55.18,80,93,9.53,FI,2021-09-08 08:19:00
476,Dudinka,69.4058,86.1778,51.12,68,100,7.9,RU,2021-09-08 08:19:00
477,The Valley,18.217,-63.0578,81.82,76,9,6.53,AI,2021-09-08 08:19:01
478,Challapata,-18.9,-66.7667,39.79,35,100,3.13,BO,2021-09-08 08:19:01
479,Effium,6.6292,8.0593,76.57,91,99,5.91,NG,2021-09-08 08:19:02
480,Sangmelima,2.9333,11.9833,68.5,98,100,1.23,CM,2021-09-08 08:19:02
481,Anaco,9.4389,-64.4728,72.66,93,100,7.0,VE,2021-09-08 08:19:02
482,Kalabo,-14.97,22.6814,88.34,12,0,10.09,ZM,2021-09-08 08:19:03
483,Chapleau,47.8405,-83.4034,53.64,97,100,9.89,CA,2021-09-08 08:15:20
484,Sarandi,-23.4436,-51.8739,70.34,59,9,11.7,BR,2021-09-08 08:19:03
485,Turukhansk,65.8167,87.9833,60.19,52,99,9.8,RU,2021-09-08 08:19:04
486,Saint-Raymond,45.467,-73.6095,65.26,80,90,3.44,CA,2021-09-08 08:19:04
487,Wegrow,52.3995,22.0163,64.2,58,46,4.43,PL,2021-09-08 08:19:04
488,Dasoguz,41.8363,59.9666,84.31,34,0,16.11,TM,2021-09-08 08:19:05
489,Santa Maria,-29.6842,-53.8069,61.45,98,100,7.09,BR,2021-09-08 08:14:54
490,Menongue,-14.6585,17.691,86.29,13,12,7.7,AO,2021-09-08 08:19:05
491,Riyadh,24.6877,46.7219,107.65,7,0,20.71,SA,2021-09-08 08:18:10
492,Waddan,29.1614,16.139,78.78,57,0,3.4,LY,2021-09-08 08:19:06
493,Awjilah,29.1081,21.2869,85.41,37,0,9.35,LY,2021-09-08 08:19:06
494,Trelew,-43.249,-65.3051,47.62,90,1,2.59,AR,2021-09-08 08:19:06
495,Eirunepe,-6.6603,-69.8736,71.82,89,17,2.46,BR,2021-09-08 08:19:07
496,Kaduy,59.2,37.15,53.64,93,100,10.4,RU,2021-09-08 08:19:07
497,Matadi,-5.8167,13.45,80.8,65,95,4.92,CD,2021-09-08 08:19:08
498,Peniche,39.3558,-9.3811,71.55,90,19,10.07,PT,2021-09-08 08:19:08
499,Lasa,46.6166,10.7002,65.28,77,24,3.44,IT,2021-09-08 08:19:08
500,Ouallam,14.3188,2.0866,80.62,62,99,6.02,NE,2021-09-08 08:19:09
501,Korla,41.7597,86.1469,91.38,13,0,10.04,CN,2021-09-08 08:19:09
502,El Retorno,2.3302,-72.6276,68.02,99,97,0.38,CO,2021-09-08 08:19:09
503,Leh,34.1667,77.5833,71.28,23,91,3.94,IN,2021-09-08 08:19:10
504,Larsnes,62.2028,5.5773,61.59,90,100,13.87,NO,2021-09-08 08:19:10
505,Port Said,31.2565,32.2841,85.98,54,20,8.05,EG,2021-09-08 08:19:10
506,Aquin,18.2833,-73.4,78.51,84,0,1.81,HT,2021-09-08 08:17:07
507,Gurupi,-11.7292,-49.0686,78.89,51,11,5.32,BR,2021-09-08 08:19:11
508,Rocha,-34.4833,-54.3333,55.67,95,100,22.12,UY,2021-09-08 08:19:11
509,Tolbazy,54.0241,55.8825,56.16,39,44,16.13,RU,2021-09-08 08:19:12
510,Yining,29.0361,114.5636,83.55,72,92,3.94,CN,2021-09-08 08:19:12
511,Tashla,51.7716,52.7427,61.14,39,100,16.13,RU,2021-09-08 08:19:12
512,Harstad,68.799,16.5293,51.58,100,100,20.0,NO,2021-09-08 08:19:13
513,Walvis Bay,-22.9575,14.5053,52.75,87,0,5.75,NA,2021-09-08 08:19:13
514,Marzuq,14.4,46.4667,94.33,20,61,9.51,YE,2021-09-08 08:19:13
515,Skole,49.0372,23.5135,67.75,43,15,1.19,UA,2021-09-08 08:19:14
516,Altay,47.8667,88.1167,82.67,18,0,8.97,CN,2021-09-08 08:19:14
517,Kolda,12.8833,-14.95,75.7,95,88,1.77,SN,2021-09-08 08:19:15
518,Meulaboh,4.1363,96.1285,80.85,76,100,3.67,ID,2021-09-08 08:19:15
519,Zhezkazgan,47.8043,67.7144,68.2,44,64,21.16,KZ,2021-09-08 08:19:15
520,Abrau-Dyurso,44.69,37.59,67.46,49,0,15.7,RU,2021-09-08 08:19:16
521,Sergeyevka,53.88,67.4158,55.02,53,83,17.2,KZ,2021-09-08 08:19:16
522,Bud,39.447,-86.1758,68.13,87,100,12.1,US,2021-09-08 08:19:16
523,Ilhabela,-23.7781,-45.3581,69.22,92,95,11.1,BR,2021-09-08 08:19:17
524,Lima,-12.0432,-77.0282,58.89,88,90,5.75,PE,2021-09-08 08:17:55
525,Mercedes,-34.6515,-59.4307,59.85,99,100,5.59,AR,2021-09-08 08:19:17
526,Ipameri,-17.7219,-48.1597,74.14,36,8,10.83,BR,2021-09-08 08:19:18
527,Bereda,43.2686,-7.5406,66.42,92,87,6.49,ES,2021-09-08 08:19:18
528,Borba,-4.3878,-59.5939,75.16,69,31,1.21,BR,2021-09-08 08:19:18
529,Tralee,52.2704,-9.7026,64.65,82,75,5.75,IE,2021-09-08 08:19:19
530,Santa Cruz,-17.8,-63.1667,78.26,73,75,11.5,BO,2021-09-08 08:19:19
531,Les Herbiers,46.8667,-1.0167,71.31,83,47,3.49,FR,2021-09-08 08:19:19
532,San Joaquin,37.9333,-121.3011,79.05,48,1,4.61,US,2021-09-08 08:19:20
533,Yaguajay,22.3272,-79.2378,75.45,90,2,6.29,CU,2021-09-08 08:19:20
534,Baffa,34.4378,73.2194,82.8,70,87,4.81,PK,2021-09-08 08:19:20
535,Savelugu,9.6244,-0.8253,77.32,84,100,2.48,GH,2021-09-08 08:19:21
536,Manono,-7.3,27.4167,86.18,49,87,5.53,CD,2021-09-08 08:19:21
537,Havre-Saint-Pierre,50.2334,-63.5986,46.76,93,75,0.0,CA,2021-09-08 08:19:21
538,Yarmouth,41.7057,-70.2286,71.1,88,1,1.01,US,2021-09-08 08:19:22
539,Kovur,14.4833,79.9833,97.43,35,100,15.05,IN,2021-09-08 08:19:22
540,Santo Domingo,18.5001,-69.9886,73.08,92,1,3.96,DO,2021-09-08 08:17:37
541,Dahuk,36.8695,42.994,95.49,11,0,8.57,IQ,2021-09-08 08:19:23
542,Luderitz,-26.6481,15.1594,70.77,30,0,4.36,NA,2021-09-08 08:19:23
543,Tazmalt,36.3868,4.3989,88.88,28,99,5.35,DZ,2021-09-08 08:19:23
544,Balao,-2.9167,-79.8167,70.54,89,99,4.45,EC,2021-09-08 08:19:24
545,Ust-Kulom,61.6864,53.6902,47.5,61,93,7.29,RU,2021-09-08 08:19:24
546,Firminy,45.3873,4.2907,73.9,46,0,12.66,FR,2021-09-08 08:19:24
547,Luena,-11.7833,19.9167,87.22,18,27,3.65,AO,2021-09-08 08:19:25
548,Kobryn,52.2138,24.3564,64.35,54,48,3.13,BY,2021-09-08 08:19:25
549,San Carlos De Bariloche,-41.1456,-71.3082,31.75,86,75,2.3,AR,2021-09-08 08:19:25
550,Porbandar,21.6422,69.6093,80.58,94,90,16.11,IN,2021-09-08 08:19:26
551,Ajdabiya,30.7554,20.2263,80.65,46,0,3.89,LY,2021-09-08 08:19:26
552,Muisne,0.6,-80.0333,74.19,88,100,10.78,EC,2021-09-08 08:19:26
553,Goundi,9.3627,17.366,78.98,78,100,4.09,TD,2021-09-08 08:19:27
554,Kanniyakumari,8.0833,77.5667,84.34,71,6,22.44,IN,2021-09-08 08:19:27
555,Barberton,-25.7884,31.0532,59.94,79,100,1.45,ZA,2021-09-08 08:19:27
556,Sainte-Marie,-20.8968,55.5496,77.16,66,0,24.16,RE,2021-09-08 08:19:28
557,Dwarka,22.2394,68.9678,84.29,79,100,12.5,IN,2021-09-08 08:19:28
558,Hattiesburg,31.3271,-89.2903,73.69,96,90,0.0,US,2021-09-08 08:19:28
559,Ballina,-28.8667,153.5667,61.79,69,1,8.7,AU,2021-09-08 08:19:29
560,San Cristobal,7.7669,-72.225,64.8,83,93,1.45,VE,2021-09-08 08:19:29
561,Corleone,37.8134,13.3017,75.99,47,43,1.95,IT,2021-09-08 08:19:29
562,Zabid,14.1951,43.3152,95.41,51,40,3.65,YE,2021-09-08 08:19:30
563,Skagen,57.7209,10.5839,64.65,90,42,17.34,DK,2021-09-08 08:19:30
564,Namwala,-15.7504,26.4384,83.35,23,0,10.31,ZM,2021-09-08 08:19:30
565,Azua,18.4532,-70.7349,76.51,80,24,4.27,DO,2021-09-08 08:15:03
566,Aleksandrovsk,59.158,57.5624,44.08,95,100,7.02,RU,2021-09-08 08:19:31
567,Ormara,25.2088,64.6357,81.54,82,100,14.34,PK,2021-09-08 08:19:31
568,Lukulu,-14.3707,23.242,88.52,12,0,10.8,ZM,2021-09-08 08:19:32
569,Notre-Dame-Du-Lac,47.6136,-68.7964,53.04,97,8,3.22,CA,2021-09-08 08:19:32
