City_ID,City,Lat,Lng,Max Temp,Humidity,Cloudiness,Wind Speed,Country,Date
0,Hambantota,6.1241,81.1185,87.12,62,50,24.87,LK,2021-09-09 11:23:06
1,Saint George,37.1041,-113.5841,79.54,25,1,0.0,US,2021-09-09 11:23:06
2,Dubai,25.2582,55.3047,103.21,53,86,16.11,AE,2021-09-09 11:18:21
3,Maniitsoq,65.4167,-52.9,37.71,62,31,7.49,GL,2021-09-09 11:18:09
4,East London,-33.0153,27.9116,70.74,56,0,17.27,ZA,2021-09-09 11:23:07
5,Ponta Do Sol,32.6667,-17.1,80.01,77,52,2.3,PT,2021-09-09 11:23:07
6,Georgetown,5.4112,100.3354,84.13,83,20,1.99,MY,2021-09-09 11:18:22
7,Saint-Philippe,-21.3585,55.7679,76.55,71,10,8.72,RE,2021-09-09 11:23:08
8,Mar Del Plata,-38.0023,-57.5575,51.82,93,90,31.07,AR,2021-09-09 11:23:08
9,Iqaluit,63.7506,-68.5145,37.13,87,75,16.11,CA,2021-09-09 11:23:09
10,Bathsheba,13.2167,-59.5167,84.81,74,40,19.57,BB,2021-09-09 11:23:09
11,Vargem Grande,-3.5431,-43.9158,81.32,69,74,5.79,BR,2021-09-09 11:23:09
12,Jahanabad,25.2167,84.9833,91.24,61,81,4.0,IN,2021-09-09 11:23:10
13,Bulancak,40.9372,38.2291,73.22,73,75,3.44,TR,2021-09-09 11:23:10
14,Rio Grande,-32.035,-52.0986,57.94,79,72,15.23,BR,2021-09-09 11:23:11
15,Ushuaia,-54.8,-68.3,38.86,87,0,5.75,AR,2021-09-09 11:18:51
16,Bollnas,61.3482,16.3946,74.39,52,39,5.19,SE,2021-09-09 11:23:11
17,Luderitz,-26.6481,15.1594,67.5,54,2,13.13,NA,2021-09-09 11:23:11
18,Carahue,-38.7,-73.1667,41.2,87,100,0.85,CL,2021-09-09 11:23:12
19,Kollam,8.8833,76.6,85.87,75,76,12.62,IN,2021-09-09 11:23:12
20,Cape Town,-33.9258,18.4232,81.12,32,0,5.75,ZA,2021-09-09 11:23:13
21,Dano,11.15,-3.0667,78.64,78,100,4.16,BF,2021-09-09 11:23:13
22,Busselton,-33.65,115.3333,55.04,87,68,8.1,AU,2021-09-09 11:23:13
23,Bagotville,-28.9833,153.4167,60.82,78,3,11.12,AU,2021-09-09 11:23:14
24,Punta Arenas,-53.15,-70.9167,39.22,86,75,8.05,CL,2021-09-09 11:22:55
25,Inhambane,-23.865,35.3833,74.68,66,80,12.3,MZ,2021-09-09 11:23:14
26,Carnarvon,-24.8667,113.6333,69.87,78,0,10.36,AU,2021-09-09 11:23:15
27,Victoria,22.2855,114.1577,89.65,71,52,1.01,HK,2021-09-09 11:23:15
28,Takoradi,4.8845,-1.7554,81.64,76,55,9.17,GH,2021-09-09 11:23:15
29,Tasiilaq,65.6145,-37.6368,44.76,64,82,7.05,GL,2021-09-09 11:23:16
30,Bredasdorp,-34.5322,20.0403,72.28,56,100,18.41,ZA,2021-09-09 11:23:16
31,Qaanaaq,77.484,-69.3632,18.19,68,100,7.27,GL,2021-09-09 11:23:18
32,Veraval,20.9,70.3667,82.15,83,100,14.38,IN,2021-09-09 11:23:18
33,Sambava,-14.2667,50.1667,77.63,62,27,13.35,MG,2021-09-09 11:23:18
34,Laguna,38.421,-121.4238,84.76,60,1,3.44,US,2021-09-09 11:22:28
35,Port Shepstone,-30.7414,30.455,68.36,61,49,10.96,ZA,2021-09-09 11:23:19
36,Awjilah,29.1081,21.2869,90.45,27,0,16.31,LY,2021-09-09 11:23:19
37,Arraial Do Cabo,-22.9661,-42.0278,73.36,83,75,8.05,BR,2021-09-09 11:23:19
38,Longyearbyen,78.2186,15.6401,39.04,75,75,4.61,SJ,2021-09-09 11:22:08
39,Dikson,73.5069,80.5464,43.12,79,43,11.9,RU,2021-09-09 11:23:20
40,Kavaratti,10.5669,72.642,82.53,76,20,13.22,IN,2021-09-09 11:23:20
41,Chinsali,-10.5414,32.0816,86.7,19,30,8.19,ZM,2021-09-09 11:23:21
42,Kudahuvadhoo,2.6708,72.8944,82.74,64,33,2.39,MV,2021-09-09 11:23:21
43,Joao Pinheiro,-17.7425,-46.1725,77.22,32,25,10.51,BR,2021-09-09 11:23:21
44,Elat,29.5581,34.9482,102.04,25,0,16.11,IL,2021-09-09 11:21:34
45,Hermanus,-34.4187,19.2345,80.91,55,100,13.44,ZA,2021-09-09 11:23:22
46,Marfino,55.7028,37.3822,64.35,77,75,11.18,RU,2021-09-09 11:23:22
47,Oldsmar,28.0342,-82.6651,84.18,80,75,4.0,US,2021-09-09 11:23:23
48,Jamestown,42.097,-79.2353,57.72,98,1,1.99,US,2021-09-09 11:16:38
49,Lagoa,39.05,-27.9833,71.31,84,100,9.82,PT,2021-09-09 11:23:23
50,Nioro,13.35,-15.75,86.72,70,42,5.06,GM,2021-09-09 11:23:23
51,Tias,28.9611,-13.645,78.48,65,20,21.85,ES,2021-09-09 11:23:24
52,Namibe,-15.1961,12.1522,79.43,69,0,13.8,AO,2021-09-09 11:23:24
53,Tshikapa,-6.4167,20.8,100.92,25,18,3.94,CD,2021-09-09 11:23:24
54,Qazanbulaq,40.6192,46.6519,72.5,49,96,10.65,AZ,2021-09-09 11:23:25
55,Atbasar,51.8,68.3333,58.19,46,98,14.56,KZ,2021-09-09 11:23:25
56,Bambous Virieux,-20.3428,57.7575,73.22,78,75,10.36,MU,2021-09-09 11:23:26
57,Codrington,-38.2667,141.9667,54.27,87,100,11.45,AU,2021-09-09 11:23:26
58,Nuuk,64.1835,-51.7216,38.01,87,1,6.91,GL,2021-09-09 11:23:26
59,Serdobsk,52.4586,44.2169,67.93,45,58,19.71,RU,2021-09-09 11:23:27
60,Henderson,36.0397,-114.9819,89.17,35,1,6.91,US,2021-09-09 11:22:44
61,Barsovo,61.1667,73.1667,53.73,47,25,6.98,RU,2021-09-09 11:23:27
62,Ballina,-28.8667,153.5667,64.36,72,1,12.66,AU,2021-09-09 11:23:28
63,Tahoua,14.8888,5.2692,89.58,48,0,6.91,NE,2021-09-09 11:23:28
64,Ostersund,63.1792,14.6357,57.65,100,75,6.91,SE,2021-09-09 11:23:28
65,Souillac,-20.5167,57.5167,73.36,78,75,10.36,MU,2021-09-09 11:23:29
66,Quatre Cocos,-20.2078,57.7625,73.09,74,56,12.48,MU,2021-09-09 11:23:29
67,Kem,64.9555,34.5793,54.3,62,55,14.43,RU,2021-09-09 11:23:29
68,Gat,31.61,34.7642,98.78,37,0,13.56,IL,2021-09-09 11:23:30
69,Ribeira Grande,38.5167,-28.7,73.8,88,40,9.22,PT,2021-09-09 11:23:30
70,Bonavista,48.6499,-53.1147,61.12,82,53,3.53,CA,2021-09-09 11:23:31
71,Mayumba,-3.432,10.6554,80.4,72,71,7.27,GA,2021-09-09 11:23:31
72,Castro,-24.7911,-50.0119,62.24,87,99,1.25,BR,2021-09-09 11:23:31
73,Santa Cruz,-17.8,-63.1667,62.65,63,90,12.66,BO,2021-09-09 11:23:32
74,Port Alfred,-33.5906,26.891,68.27,57,71,18.77,ZA,2021-09-09 11:23:32
75,Bayburt,40.2589,40.2278,77.13,24,0,7.63,TR,2021-09-09 11:23:32
76,Port Hawkesbury,45.6169,-61.3485,68.18,96,40,1.99,CA,2021-09-09 11:23:33
77,Thinadhoo,0.5333,72.9333,83.19,67,30,2.21,MV,2021-09-09 11:23:33
78,Cap-Aux-Meules,47.3821,-61.8597,64.45,88,75,17.27,CA,2021-09-09 11:23:34
79,Narsaq,60.9167,-46.05,44.82,65,38,2.48,GL,2021-09-09 11:23:34
80,Stranraer,54.9023,-5.0273,64.29,93,96,7.43,GB,2021-09-09 11:23:34
81,Taoudenni,22.6783,-3.9836,110.07,9,0,19.89,ML,2021-09-09 11:23:35
82,Sechura,-5.5569,-80.8222,61.65,89,85,10.09,PE,2021-09-09 11:23:35
83,Moose Factory,51.2585,-80.6094,50.0,93,90,14.97,CA,2021-09-09 11:23:35
84,Tres Arroyos,-38.3739,-60.2798,48.7,95,100,15.46,AR,2021-09-09 11:23:36
85,Hare Bay,48.8499,-54.0148,56.55,79,46,2.37,CA,2021-09-09 11:23:36
86,Comodoro Rivadavia,-45.8667,-67.5,51.66,58,0,10.36,AR,2021-09-09 11:23:37
87,Pedernales,18.0384,-71.744,80.31,66,8,4.27,DO,2021-09-09 11:23:37
88,Horqueta,-23.3428,-57.0597,63.23,81,100,4.56,PY,2021-09-09 11:23:37
89,Medzev,48.7004,20.8937,74.61,33,4,5.41,SK,2021-09-09 11:23:38
90,Axim,4.8699,-2.2405,82.38,73,64,8.43,GH,2021-09-09 11:23:38
91,Amasia,40.6533,35.8331,80.6,26,0,5.28,TR,2021-09-09 11:23:38
92,Chibombo,-14.6569,28.0706,87.6,14,0,13.29,ZM,2021-09-09 11:23:39
93,Koungheul,13.9833,-14.8,87.15,70,29,8.93,SN,2021-09-09 11:23:39
94,Uige,-7.6087,15.0613,90.81,39,48,2.28,AO,2021-09-09 11:23:39
95,Pisco,-13.7,-76.2167,60.85,82,90,5.75,PE,2021-09-09 11:23:40
96,Petrivka,46.9695,30.9591,73.85,18,0,7.18,UA,2021-09-09 11:23:40
97,Harer,9.3094,42.1258,71.78,56,83,12.95,ET,2021-09-09 11:23:40
98,Isiolo,0.3546,37.5822,83.82,39,74,15.14,KE,2021-09-09 11:23:41
99,Santa Maria,-29.6842,-53.8069,56.5,72,75,11.5,BR,2021-09-09 11:23:41
100,Astana,51.1801,71.446,62.55,29,40,17.9,KZ,2021-09-09 11:19:51
101,Trebisacce,39.8708,16.5312,84.52,41,16,7.58,IT,2021-09-09 11:23:42
102,Port Elizabeth,-33.918,25.5701,76.1,64,0,17.27,ZA,2021-09-09 11:23:42
103,Cruz Alta,-28.6386,-53.6064,51.78,92,5,13.51,BR,2021-09-09 11:23:42
104,San Andres Del Rabanedo,42.6117,-5.6167,67.19,63,75,12.66,ES,2021-09-09 11:23:43
105,Sisimiut,66.9395,-53.6735,35.76,59,16,5.7,GL,2021-09-09 11:23:43
106,Mashhad,36.297,59.6062,84.34,26,0,11.5,IR,2021-09-09 11:23:27
107,Kyshtovka,56.555,76.6271,48.25,74,97,12.19,RU,2021-09-09 11:23:43
108,Koutiala,12.3917,-5.4642,80.46,67,90,10.96,ML,2021-09-09 11:23:44
109,Hithadhoo,-0.6,73.0833,82.99,71,27,6.02,MV,2021-09-09 11:23:44
110,Barinas,8.6226,-70.2075,74.89,91,90,3.49,VE,2021-09-09 11:23:44
111,Sena Madureira,-9.0656,-68.6569,73.26,83,78,2.37,BR,2021-09-09 11:23:45
112,Chuy,-33.6971,-53.4616,51.33,91,99,12.08,UY,2021-09-09 11:21:33
113,Nanortalik,60.1432,-45.2371,42.57,94,84,12.73,GL,2021-09-09 11:23:45
114,Mainaguri,26.5667,88.8167,88.9,65,61,2.19,IN,2021-09-09 11:23:46
115,Bulawayo,-20.15,28.5833,78.4,33,6,11.68,ZW,2021-09-09 11:23:46
116,Pasni,25.2631,63.471,80.83,86,100,21.59,PK,2021-09-09 11:23:47
117,Marsh Harbour,26.5412,-77.0636,82.78,72,41,4.27,BS,2021-09-09 11:23:47
118,Bhawanipatna,19.9,83.1667,84.2,76,84,2.51,IN,2021-09-09 11:23:47
119,La Ciotat,43.1748,5.6045,85.57,45,99,17.98,FR,2021-09-09 11:23:48
120,Imbituba,-28.24,-48.6703,69.69,94,99,7.23,BR,2021-09-09 11:23:48
121,Abu Samrah,35.3029,37.1841,93.15,22,0,20.0,SY,2021-09-09 11:23:48
122,Caravelas,-17.7125,-39.2481,76.86,75,98,8.01,BR,2021-09-09 11:23:49
123,Boa Viagem,-5.1275,-39.7322,79.47,56,51,8.48,BR,2021-09-09 11:23:49
124,Tatarskaya Kargala,51.9495,55.1731,66.22,27,95,21.5,RU,2021-09-09 11:23:50
125,Chor,25.5167,69.7667,98.58,43,79,14.07,PK,2021-09-09 11:23:50
126,Valenca Do Piaui,-6.4075,-41.7456,80.78,48,6,8.39,BR,2021-09-09 11:20:41
127,Diamantino,-14.4086,-56.4461,77.88,66,43,8.61,BR,2021-09-09 11:23:50
128,Sao Filipe,14.8961,-24.4956,78.78,77,36,2.86,CV,2021-09-09 11:23:51
129,Vadso,70.0744,29.7487,46.35,83,100,17.05,NO,2021-09-09 11:23:51
130,Oskarshamn,57.2645,16.4484,74.98,55,13,8.23,SE,2021-09-09 11:23:51
131,Preili,56.2944,26.7246,69.49,57,82,10.18,LV,2021-09-09 11:23:52
132,Tashla,51.7716,52.7427,68.41,30,97,22.68,RU,2021-09-09 11:23:52
133,Vestmannaeyjar,63.4427,-20.2734,56.39,71,75,5.75,IS,2021-09-09 11:23:53
134,Kamyaran,34.7956,46.9355,96.75,10,0,6.87,IR,2021-09-09 11:19:45
135,Alenquer,-1.9417,-54.7383,82.74,79,29,2.64,BR,2021-09-09 11:23:53
136,Praia Da Vitoria,38.7333,-27.0667,77.25,78,20,4.16,PT,2021-09-09 11:23:54
137,Kirkuk,35.4681,44.3922,100.98,12,0,11.81,IQ,2021-09-09 11:21:04
138,Diffa,13.3154,12.6113,87.6,49,96,6.73,NE,2021-09-09 11:23:54
139,Tripoli,32.8752,13.1875,86.29,39,40,3.6,LY,2021-09-09 11:22:50
140,Brus Laguna,15.75,-84.4833,73.78,99,81,1.36,HN,2021-09-09 11:23:55
141,Cidreira,-30.1811,-50.2056,59.72,79,49,15.26,BR,2021-09-09 11:23:55
142,Mecca,21.4267,39.8261,113.14,10,13,7.9,SA,2021-09-09 11:20:47
143,Beyneu,45.3167,55.2,70.79,14,16,4.05,KZ,2021-09-09 11:23:56
144,Qasigiannguit,68.8193,-51.1922,30.45,80,99,17.85,GL,2021-09-09 11:23:56
145,Shelburne,44.0787,-80.2041,54.75,88,28,7.81,CA,2021-09-09 11:23:56
146,Ancud,-41.8697,-73.8203,49.53,96,100,8.93,CL,2021-09-09 11:23:57
147,Sept-Iles,50.2001,-66.3821,58.05,98,90,3.0,CA,2021-09-09 11:23:03
148,Morondava,-20.2833,44.2833,79.86,50,0,15.08,MG,2021-09-09 11:23:57
149,Bridgewater,44.3835,-64.5155,62.28,99,72,3.44,CA,2021-09-09 11:23:58
150,Lebu,-37.6167,-73.65,49.69,80,100,13.31,CL,2021-09-09 11:23:58
151,Dire Dawa,9.5931,41.8661,85.77,38,50,10.29,ET,2021-09-09 11:23:58
152,Upata,8.0086,-62.3989,71.17,95,88,2.75,VE,2021-09-09 11:23:59
153,Pokrovskoye,47.4157,38.8971,73.62,24,0,4.0,RU,2021-09-09 11:23:59
154,Tessalit,20.1986,1.0114,100.29,21,20,8.99,ML,2021-09-09 11:23:59
155,Chegutu,-18.1302,30.1407,86.63,18,0,7.05,ZW,2021-09-09 11:24:00
156,Izhma,65.0083,53.9113,47.43,99,100,1.68,RU,2021-09-09 11:24:00
157,Warri,5.5167,5.75,87.66,63,74,2.21,NG,2021-09-09 11:24:00
158,Shakawe,-18.3667,21.85,95.76,12,35,11.07,BW,2021-09-09 11:24:01
159,Huarmey,-10.0681,-78.1522,61.43,90,87,7.09,PE,2021-09-09 11:24:01
160,Sao Jose Da Coroa Grande,-8.8978,-35.1478,77.72,76,66,6.24,BR,2021-09-09 11:24:02
161,Klaksvik,62.2266,-6.589,52.72,68,3,4.56,FO,2021-09-09 11:24:02
162,Atar,20.5169,-13.0499,108.0,7,33,9.13,MR,2021-09-09 11:24:02
163,Boende,-0.2167,20.8667,94.64,40,98,1.9,CD,2021-09-09 11:24:03
164,Upernavik,72.7868,-56.1549,30.61,72,100,3.44,GL,2021-09-09 11:24:03
165,Mahebourg,-20.4081,57.7,73.26,78,75,10.36,MU,2021-09-09 11:24:03
166,Carmelo,-33.9892,-58.2856,57.16,96,100,9.69,UY,2021-09-09 11:24:04
167,Candido Mendes,-1.4467,-45.7167,81.66,71,34,7.49,BR,2021-09-09 11:24:04
168,Charleston,32.7766,-79.9309,75.22,97,75,4.0,US,2021-09-09 11:21:03
169,Salym,60.0625,71.4789,51.64,56,93,5.57,RU,2021-09-09 11:24:05
170,Bouna,9.2667,-3.0,80.02,75,100,5.26,CI,2021-09-09 11:24:05
171,Marawi,7.9986,124.2928,69.66,93,99,5.26,PH,2021-09-09 11:24:06
172,Jiwani,25.05,61.7417,82.4,82,89,15.64,PK,2021-09-09 11:24:06
173,Warrington,53.3925,-2.5802,73.94,79,40,1.99,GB,2021-09-09 11:24:06
174,Touros,-5.1989,-35.4608,81.5,62,7,15.66,BR,2021-09-09 11:24:07
175,Mogadishu,2.0371,45.3438,80.64,72,78,15.64,SO,2021-09-09 11:24:07
176,Coari,-4.085,-63.1414,75.18,89,99,0.69,BR,2021-09-09 11:24:07
177,Szilvasvarad,48.1,20.4,73.71,28,3,1.95,HU,2021-09-09 11:24:08
178,Hobyo,5.3505,48.5268,83.08,68,30,27.31,SO,2021-09-09 11:24:08
179,Zhashkiv,49.2454,30.1102,73.22,33,21,4.68,UA,2021-09-09 11:24:08
180,Bom Jesus,-9.0744,-44.3586,81.39,48,25,7.94,BR,2021-09-09 11:24:09
181,Puerto Narino,-3.7703,-70.3831,73.35,97,72,0.31,CO,2021-09-09 11:24:09
182,Muros,42.7762,-9.0603,71.24,93,99,8.28,ES,2021-09-09 11:24:09
183,Uruzgan,32.8333,66.0,91.31,8,0,6.29,AF,2021-09-09 11:24:10
184,Cabedelo,-6.9811,-34.8339,79.47,74,72,12.08,BR,2021-09-09 11:24:10
185,Saint-Marc,19.1082,-72.6938,79.16,78,3,5.17,HT,2021-09-09 11:24:10
186,Aksu,41.1231,80.2644,92.28,11,0,6.8,CN,2021-09-09 11:24:11
187,Salalah,17.0151,54.0924,82.49,83,90,8.05,OM,2021-09-09 11:24:11
188,Puerto Ayora,-0.7393,-90.3518,69.55,88,96,11.99,EC,2021-09-09 11:24:12
189,Tocache,-8.1842,-76.5125,69.49,99,94,1.01,PE,2021-09-09 11:24:12
190,Cockburn Town,21.4612,-71.1419,82.0,72,1,7.67,TC,2021-09-09 11:24:12
191,Sur,22.5667,59.5289,92.59,52,97,6.38,OM,2021-09-09 11:24:13
192,Altagracia De Orituco,9.8601,-66.3814,70.41,95,99,2.21,VE,2021-09-09 11:24:13
193,Almeirim,-1.5233,-52.5817,77.23,86,17,5.61,BR,2021-09-09 11:24:13
194,Coquimbo,-29.9533,-71.3436,47.93,76,20,4.61,CL,2021-09-09 11:24:14
195,Lerwick,60.1545,-1.1494,55.4,90,100,15.17,GB,2021-09-09 11:24:14
196,Kumluca,36.3703,30.2869,84.47,55,0,12.46,TR,2021-09-09 11:24:14
197,Jalu,29.0331,21.5482,90.88,27,0,16.13,LY,2021-09-09 11:24:15
198,Jacareacanga,-6.2222,-57.7528,73.62,95,98,2.44,BR,2021-09-09 11:24:15
199,Havoysund,70.9963,24.6622,45.48,77,100,15.21,NO,2021-09-09 11:24:15
200,Vila Franca Do Campo,37.7167,-25.4333,73.81,66,10,5.99,PT,2021-09-09 11:24:16
201,Rio Gallegos,-51.6226,-69.2181,35.65,100,40,5.75,AR,2021-09-09 11:20:08
202,Manama,26.2154,50.5832,109.58,41,0,21.85,BH,2021-09-09 11:24:16
203,Itai,-23.4178,-49.0906,71.15,74,94,4.81,BR,2021-09-09 11:24:17
204,Necochea,-38.5473,-58.7368,50.04,95,100,23.33,AR,2021-09-09 11:24:17
205,Moussoro,13.6408,16.4901,88.74,50,91,9.91,TD,2021-09-09 11:24:17
206,Torbay,47.6666,-52.7314,60.28,88,20,5.75,CA,2021-09-09 11:24:18
207,Ganta,7.3022,-8.5308,79.14,83,94,3.83,LR,2021-09-09 11:20:18
208,Camopi,3.1655,-52.3158,73.98,96,98,1.63,GF,2021-09-09 11:24:18
209,La Peca,-5.6111,-78.435,67.21,91,91,1.19,PE,2021-09-09 11:24:19
210,Hamilton,39.1834,-84.5333,60.1,89,20,0.0,US,2021-09-09 11:24:13
211,Osinovo,55.8809,48.881,57.7,91,100,17.07,RU,2021-09-09 11:24:19
212,Morant Bay,17.8815,-76.4093,82.02,83,21,9.22,JM,2021-09-09 11:24:19
213,Ust-Kulom,61.6864,53.6902,52.12,89,97,10.78,RU,2021-09-09 11:24:20
214,Quirinopolis,-18.4483,-50.4517,84.76,25,33,4.07,BR,2021-09-09 11:24:20
215,Adrar,20.5022,-10.0711,103.69,7,7,8.23,MR,2021-09-09 11:24:20
216,Mangai,-4.05,19.5333,97.11,33,54,3.27,CD,2021-09-09 11:24:21
217,Varkaus,62.3153,27.873,55.51,65,100,8.25,FI,2021-09-09 11:24:21
218,Chapais,49.7834,-74.8492,55.18,96,99,9.46,CA,2021-09-09 11:24:22
219,Mbuji-Mayi,-6.15,23.6,101.26,23,67,1.63,CD,2021-09-09 11:24:22
220,Horta,38.5333,-28.6333,73.04,88,40,9.22,PT,2021-09-09 11:24:22
221,Moroni,-11.7022,43.2551,84.2,61,6,14.97,KM,2021-09-09 11:24:23
222,Bardiyah,31.7561,25.0865,82.6,57,5,15.1,LY,2021-09-09 11:24:23
223,Balykshi,47.0667,51.8667,69.8,23,0,15.66,KZ,2021-09-09 11:24:23
224,Ilulissat,69.2167,-51.1,30.22,86,75,14.97,GL,2021-09-09 11:24:24
225,Talcahuano,-36.7167,-73.1167,42.48,100,75,5.75,CL,2021-09-09 11:24:24
226,Ulagan,50.6321,87.9563,43.68,88,68,5.93,RU,2021-09-09 11:24:25
227,Hattiesburg,31.3271,-89.2903,72.09,92,75,5.75,US,2021-09-09 11:22:57
228,Saint-Jerome,45.7804,-74.0036,62.08,100,75,3.44,CA,2021-09-09 11:21:07
229,Stornoway,58.2093,-6.3865,55.92,94,75,20.71,GB,2021-09-09 11:24:25
230,Cayenne,4.9333,-52.3333,79.09,88,75,1.14,GF,2021-09-09 11:24:26
231,Dosso,13.049,3.1937,88.7,48,73,11.45,NE,2021-09-09 11:24:26
232,Aquidauana,-20.4711,-55.7872,69.84,72,95,8.59,BR,2021-09-09 11:24:26
233,Clyde River,70.4692,-68.5914,31.53,73,92,9.42,CA,2021-09-09 11:24:27
234,Frederico Westphalen,-27.3592,-53.3944,52.45,88,79,4.79,BR,2021-09-09 11:24:27
235,Pangnirtung,66.1451,-65.7125,35.6,69,20,4.61,CA,2021-09-09 11:24:28
236,Suez,29.9737,32.5263,101.28,18,0,5.73,EG,2021-09-09 11:24:28
237,Kruisfontein,-34.0033,24.7314,73.89,32,79,18.28,ZA,2021-09-09 11:24:28
238,Goderich,43.7501,-81.7165,63.91,77,86,11.5,CA,2021-09-09 11:24:29
239,San Ignacio,17.1561,-89.0714,71.74,100,0,4.61,BZ,2021-09-09 11:24:29
240,Honningsvag,70.9821,25.9704,44.13,75,100,17.22,NO,2021-09-09 11:24:29
241,Newnan,33.3807,-84.7997,73.6,93,90,3.44,US,2021-09-09 11:22:38
242,Garango,11.8,-0.5506,83.93,64,54,7.65,BF,2021-09-09 11:24:30
243,Paamiut,61.994,-49.6678,42.4,93,96,2.57,GL,2021-09-09 11:24:30
244,Lazurne,46.084,32.5295,77.45,43,0,13.65,UA,2021-09-09 11:24:31
245,Stykkisholmur,65.0757,-22.7297,50.86,74,67,9.08,IS,2021-09-09 11:24:31
246,Harper,4.375,-7.7169,81.48,76,61,6.33,LR,2021-09-09 11:24:31
247,Mwaya,-9.55,33.95,81.39,47,78,5.77,TZ,2021-09-09 11:24:32
248,Llano De Piedra,7.6667,-80.5667,73.72,94,74,2.55,PA,2021-09-09 11:24:32
249,Humaita,-7.5061,-63.0208,75.97,82,57,2.21,BR,2021-09-09 11:24:32
250,Hazleton,40.9584,-75.9746,63.25,90,90,0.0,US,2021-09-09 11:24:33
251,Carballo,43.213,-8.691,68.54,93,99,8.32,ES,2021-09-09 11:24:33
252,Hearst,49.6835,-83.6665,50.25,96,100,6.96,CA,2021-09-09 11:24:33
253,Margate,51.3813,1.3862,72.18,85,98,12.37,GB,2021-09-09 11:24:34
254,Ginda,30.6945,78.4932,68.18,86,100,3.74,IN,2021-09-09 11:24:34
255,Makushino,55.2103,67.2442,56.75,54,92,13.49,RU,2021-09-09 11:24:35
256,Parma,44.8027,10.329,81.79,38,0,6.91,IT,2021-09-09 11:24:35
257,Dhidhdhoo,6.8833,73.1,83.16,72,25,9.89,MV,2021-09-09 11:24:35
258,Bertoua,4.5833,13.6833,84.83,57,51,2.75,CM,2021-09-09 11:24:36
259,Karasjok,69.4719,25.5112,44.71,61,99,18.19,NO,2021-09-09 11:24:36
260,Halifax,44.6453,-63.5724,65.68,94,90,3.0,CA,2021-09-09 11:19:48
261,Lima,-12.0432,-77.0282,57.9,87,90,4.61,PE,2021-09-09 11:20:18
262,Alghero,40.5589,8.3181,87.89,27,0,3.44,IT,2021-09-09 11:24:37
263,Yarkovo,57.4028,67.0786,57.6,58,86,9.93,RU,2021-09-09 11:24:37
264,Guaruja,-23.9931,-46.2564,83.16,94,20,3.44,BR,2021-09-09 11:24:37
265,Campos Novos,-27.4017,-51.225,52.0,95,98,5.68,BR,2021-09-09 11:24:38
266,Khorramabad,33.4878,48.3558,101.82,6,0,11.5,IR,2021-09-09 11:24:38
267,Severodvinsk,64.5635,39.8302,50.11,68,97,10.98,RU,2021-09-09 11:24:39
268,Birao,10.2849,22.7882,75.97,84,100,1.32,CF,2021-09-09 11:24:39
269,Bonthe,7.5264,-12.505,84.45,71,77,7.56,SL,2021-09-09 11:24:39
270,Wilmington,34.2257,-77.9447,77.86,90,20,8.05,US,2021-09-09 11:24:39
271,Acarau,-2.8856,-40.12,82.42,65,92,18.1,BR,2021-09-09 11:24:40
272,Parrita,9.5201,-84.3225,81.99,88,100,2.68,CR,2021-09-09 11:24:40
273,Lasa,46.6166,10.7002,74.03,57,20,4.25,IT,2021-09-09 11:24:40
274,Faratsiho,-19.4,46.95,78.39,18,0,5.95,MG,2021-09-09 11:24:41
275,Sabha,27.0377,14.4283,93.74,23,0,4.9,LY,2021-09-09 11:24:41
276,Inongo,-1.95,18.2667,78.15,65,35,2.84,CD,2021-09-09 11:24:41
277,Khandbari,27.3747,87.2039,77.67,86,78,3.69,NP,2021-09-09 11:24:42
278,Chalmette,29.9427,-89.9634,79.0,76,1,1.01,US,2021-09-09 11:24:42
279,Ibra,22.6906,58.5334,105.76,15,72,4.99,OM,2021-09-09 11:24:43
280,Saint Anthony,45.0205,-93.218,56.82,89,1,3.44,US,2021-09-09 11:24:43
281,Moi,58.4567,6.5518,73.65,53,91,5.99,NO,2021-09-09 11:24:43
282,Maldonado,-34.6667,-54.9167,54.79,92,100,9.78,UY,2021-09-09 11:22:05
283,Chibuto,-24.6867,33.5306,79.03,45,58,11.59,MZ,2021-09-09 11:24:44
284,San Luis,-33.295,-66.3356,38.23,93,0,1.16,AR,2021-09-09 11:24:44
285,Biskamzha,53.4497,89.5272,45.09,80,93,7.29,RU,2021-09-09 11:24:44
286,Coihaique,-45.5752,-72.0662,43.41,93,90,4.61,CL,2021-09-09 11:24:45
287,Los Llanos De Aridane,28.6585,-17.9182,76.75,69,20,14.97,ES,2021-09-09 11:24:45
288,Hofn,64.2539,-15.2082,51.82,62,0,5.75,IS,2021-09-09 11:24:45
289,San Matias,-16.3667,-58.4,69.76,64,33,8.32,BO,2021-09-09 11:24:46
290,Gamba,-2.65,10.0,83.03,64,54,8.93,GA,2021-09-09 11:24:46
291,Greytown,-29.0642,30.5928,65.95,44,0,5.77,ZA,2021-09-09 11:24:47
292,Roald,62.5833,6.1333,61.11,100,75,13.8,NO,2021-09-09 11:24:47
293,Monte Alegre,-2.0078,-54.0692,77.9,80,43,7.43,BR,2021-09-09 11:24:47
294,Tingi,-11.3,35.0333,80.04,33,54,7.43,TZ,2021-09-09 11:24:48
295,Ciudad Bolivar,8.1222,-63.5497,76.33,86,94,5.88,VE,2021-09-09 11:24:48
296,Rawson,-43.3002,-65.1023,48.18,83,76,15.9,AR,2021-09-09 11:24:48
297,Dingle,10.9995,122.6711,76.12,91,100,7.54,PH,2021-09-09 11:24:49
298,Kayseri,38.737,35.4968,82.42,24,20,5.75,TR,2021-09-09 11:24:50
299,Biltine,14.5333,20.9167,92.68,36,100,2.95,TD,2021-09-09 11:24:50
300,Thompson,55.7435,-97.8558,41.16,100,40,0.0,CA,2021-09-09 11:24:50
301,Eqbaliyeh,35.3022,51.5358,92.64,17,0,10.54,IR,2021-09-09 11:24:51
302,Kalmar,56.6616,16.3616,75.15,76,20,12.66,SE,2021-09-09 11:24:51
303,Novovasylivka,46.8315,35.7536,75.11,27,0,8.9,UA,2021-09-09 11:24:52
304,Kyrylivka,46.3759,35.3675,69.3,44,0,13.78,UA,2021-09-09 11:24:52
305,Salinopolis,-0.6136,-47.3561,81.16,76,60,10.98,BR,2021-09-09 11:24:52
306,Dingli,35.8614,14.3822,78.82,65,20,9.22,MT,2021-09-09 11:24:53
307,Postojna,45.7769,14.2167,79.5,36,43,4.18,SI,2021-09-09 11:24:53
308,Nurota,40.5614,65.6886,82.49,19,0,18.54,UZ,2021-09-09 11:24:53
309,Ariquemes,-9.9133,-63.0408,75.49,72,27,1.68,BR,2021-09-09 11:24:54
310,Olafsvik,64.8945,-23.7142,50.52,79,77,11.54,IS,2021-09-09 11:24:54
311,Abonnema,4.7084,6.7931,87.49,63,95,1.97,NG,2021-09-09 11:24:55
312,General Salgado,-20.6483,-50.3606,80.38,41,78,7.2,BR,2021-09-09 11:24:55
313,Queenstown,-31.8976,26.8753,66.96,27,19,6.42,ZA,2021-09-09 11:24:55
314,Maceio,-9.6658,-35.7353,80.04,83,20,2.3,BR,2021-09-09 11:24:10
315,Kayes,14.0,-11.0,87.44,65,100,11.21,ML,2021-09-09 11:24:56
316,San Cristobal,7.7669,-72.225,69.98,85,86,2.86,VE,2021-09-09 11:24:56
317,Peniche,39.3558,-9.3811,76.48,83,70,6.89,PT,2021-09-09 11:24:56
318,Mali,12.079,-12.2982,74.52,73,89,2.57,GN,2021-09-09 11:24:57
319,Zheleznogorsk,52.331,35.3711,71.38,39,40,13.56,RU,2021-09-09 11:24:57
320,La Rioja,42.25,-2.5,71.38,50,100,6.08,ES,2021-09-09 11:24:57
321,Linhares,-19.3911,-40.0722,74.05,77,74,8.72,BR,2021-09-09 11:24:58
322,Geraldton,-28.7667,114.6,61.21,94,90,11.5,AU,2021-09-09 11:24:58
323,El Alto,-4.2714,-81.2147,64.9,76,95,9.04,PE,2021-09-09 11:24:59
324,Birjand,32.8663,59.2211,88.27,9,0,13.8,IR,2021-09-09 11:24:59
325,Iquitos,-3.7481,-73.2472,75.24,94,40,2.3,PE,2021-09-09 11:22:33
326,Puerto Ayacucho,5.6639,-67.6236,74.44,92,68,2.04,VE,2021-09-09 11:24:59
327,Edd,13.9297,41.6925,95.79,54,91,8.03,ER,2021-09-09 11:25:00
328,Ndele,8.4109,20.6473,81.64,73,100,3.85,CF,2021-09-09 11:25:00
329,Jawhar,2.7809,45.5005,90.63,38,60,22.03,SO,2021-09-09 11:25:01
330,Valparaiso,-33.0393,-71.6273,40.64,93,0,4.61,CL,2021-09-09 11:25:01
331,Ler,8.3018,30.1418,75.74,84,99,5.26,SS,2021-09-09 11:25:01
332,Hadejia,12.4498,10.0444,90.14,46,85,2.62,NG,2021-09-09 11:25:03
333,Nalut,30.3333,10.85,92.73,19,1,4.14,LY,2021-09-09 11:25:03
334,Kalininsk,51.5,44.4758,69.87,40,97,18.77,RU,2021-09-09 11:25:04
335,Koslan,63.4564,48.8989,44.4,89,100,12.73,RU,2021-09-09 11:25:04
336,Zambezi,-13.5432,23.1047,96.22,9,2,9.64,ZM,2021-09-09 11:25:05
337,Itarema,-2.9248,-39.9167,82.87,64,89,16.93,BR,2021-09-09 11:25:05
338,Chamba,32.5667,76.1333,78.78,80,100,1.3,IN,2021-09-09 11:25:05
339,Ponta Delgada,37.7333,-25.6667,74.12,78,20,9.22,PT,2021-09-09 11:25:06
340,Cartagena,10.3997,-75.5144,78.42,100,20,0.0,CO,2021-09-09 11:24:17
341,Bandarbeyla,9.4942,50.8122,86.79,54,100,31.34,SO,2021-09-09 11:25:06
342,Liepaja,56.5419,21.0367,67.98,64,0,12.66,LV,2021-09-09 11:25:06
343,Inirida,3.8653,-67.9239,73.02,98,96,1.25,CO,2021-09-09 11:25:07
344,Nouadhibou,20.931,-17.0347,76.98,73,47,14.97,MR,2021-09-09 11:23:28
345,Varzea Da Palma,-17.5981,-44.7308,79.47,42,22,6.08,BR,2021-09-09 11:25:07
346,Filadelfia,39.9523,-75.1638,68.27,94,90,1.99,US,2021-09-09 11:21:53
347,Carauari,-4.8828,-66.8958,72.28,97,92,1.48,BR,2021-09-09 11:25:08
348,Sokolo,14.7328,-6.1219,91.89,45,93,9.64,ML,2021-09-09 11:25:08
349,Antofagasta,-23.65,-70.4,56.48,81,41,1.41,CL,2021-09-09 11:22:26
350,Gornopravdinsk,60.05,69.9,51.22,55,95,7.7,RU,2021-09-09 11:25:09
351,Pilar,-9.5972,-35.9567,78.73,73,56,3.62,BR,2021-09-09 11:25:09
352,Saint-Augustin,51.226,-58.6502,57.85,90,98,8.57,CA,2021-09-09 11:25:09
353,Macamic,48.7502,-78.9996,52.03,96,100,11.01,CA,2021-09-09 11:25:10
354,Bambey,14.6955,-16.4493,91.45,58,40,7.25,SN,2021-09-09 11:25:10
355,Msowero,-6.5333,37.2,86.45,36,56,6.06,TZ,2021-09-09 11:25:10
356,Zabolotiv,48.4705,25.2857,73.87,32,1,8.25,UA,2021-09-09 11:25:11
357,Gambela,8.25,34.5833,74.7,83,100,2.95,ET,2021-09-09 11:25:11
358,Valdivia,-39.8142,-73.2459,44.69,89,100,0.83,CL,2021-09-09 11:25:11
359,Kedrovyy,56.1667,91.8167,50.41,65,98,12.48,RU,2021-09-09 11:25:12
360,Kalangala,-0.3089,32.225,74.23,63,59,13.22,UG,2021-09-09 11:25:12
361,Zaraza,9.3503,-65.3245,72.19,96,100,2.13,VE,2021-09-09 11:25:12
362,Damietta,31.4165,31.8133,85.26,61,0,12.46,EG,2021-09-09 11:25:13
363,Sevojno,43.845,19.8986,71.33,63,40,9.22,RS,2021-09-09 11:25:13
364,Wadi Maliz,36.4681,8.5495,91.06,33,62,3.6,TN,2021-09-09 11:25:13
365,Chilca,-12.5211,-76.7372,59.61,91,94,4.85,PE,2021-09-09 11:25:14
366,La Seyne-Sur-Mer,43.0982,5.8847,87.76,46,98,5.99,FR,2021-09-09 11:25:14
367,Leh,34.1667,77.5833,63.95,48,97,6.58,IN,2021-09-09 11:25:15
368,Havelock,34.8791,-76.9013,77.95,94,75,1.99,US,2021-09-09 11:25:15
369,Tatawin,32.9297,10.4518,97.68,19,7,14.36,TN,2021-09-09 11:25:15
370,Grindavik,63.8424,-22.4338,51.75,76,75,8.05,IS,2021-09-09 11:25:16
371,Mercedes,-34.6515,-59.4307,53.83,94,100,23.2,AR,2021-09-09 11:25:16
372,Liverpool,53.4106,-2.9779,73.69,78,40,2.3,GB,2021-09-09 11:25:16
373,Bud,39.447,-86.1758,59.22,91,2,5.12,US,2021-09-09 11:25:17
374,Saint-Joseph,-21.3667,55.6167,75.56,69,11,6.08,RE,2021-09-09 11:25:17
375,Sinop,41.7711,34.8709,68.43,49,0,8.48,TR,2021-09-09 11:25:17
376,Porto Seguro,-16.4497,-39.0647,75.72,88,40,3.44,BR,2021-09-09 11:25:18
377,Kasamwa,-2.85,32.4333,87.22,27,64,8.86,TZ,2021-09-09 11:25:18
378,Klodzko,50.4349,16.6614,78.31,38,11,16.73,PL,2021-09-09 11:25:18
379,Lowestoft,52.4752,1.7516,79.95,65,100,10.8,GB,2021-09-09 11:25:19
380,Brae,60.3964,-1.353,55.31,87,100,12.8,GB,2021-09-09 11:25:19
381,Garowe,8.4054,48.4845,93.94,27,100,25.46,SO,2021-09-09 11:25:20
382,Reyes,-14.3167,-67.3833,70.25,98,98,4.7,BO,2021-09-09 11:25:20
383,Tetouan,35.5711,-5.3724,81.37,57,40,13.8,MA,2021-09-09 11:23:08
384,Vila Velha,-20.3297,-40.2925,75.15,73,40,13.8,BR,2021-09-09 11:25:21
385,Pavilosta,56.8879,21.1859,67.95,74,80,12.46,LV,2021-09-09 11:25:21
386,Loanda,-8.8368,13.2343,77.0,78,20,9.22,AO,2021-09-09 11:25:21
387,Aosta,45.7667,7.4167,64.49,58,78,4.0,IT,2021-09-09 11:25:22
388,Mangrol,21.1167,70.1167,82.11,83,100,14.47,IN,2021-09-09 11:25:22
389,Port-Gentil,-0.7193,8.7815,84.16,70,75,13.8,GA,2021-09-09 11:25:22
390,Terrace Bay,48.7834,-87.1,40.62,87,29,6.55,CA,2021-09-09 11:25:23
391,San Carlos De Bariloche,-41.1456,-71.3082,38.95,81,75,4.61,AR,2021-09-09 11:20:29
392,Gondar,12.6,37.4667,71.33,58,25,2.55,ET,2021-09-09 11:21:31
393,Kautokeino,69.0125,23.0412,48.04,60,100,9.17,NO,2021-09-09 11:25:23
394,Cururupu,-1.8283,-44.8683,79.74,75,50,6.62,BR,2021-09-09 11:25:24
395,Dwarka,22.2394,68.9678,81.46,82,100,11.56,IN,2021-09-09 11:25:24
396,Cravo Norte,6.3017,-70.2041,74.73,90,98,4.12,CO,2021-09-09 11:25:24
397,Marrakesh,31.6315,-8.0083,84.27,45,0,4.61,MA,2021-09-09 11:22:59
398,Yambio,4.5721,28.3955,80.4,77,88,1.01,SS,2021-09-09 11:25:25
399,Rioja,-29.4111,-66.8507,47.89,53,0,1.48,AR,2021-09-09 11:24:01
400,Lujan,-34.5703,-59.105,57.06,97,100,8.01,AR,2021-09-09 11:25:25
401,Yar-Sale,66.8333,70.8333,50.76,44,63,11.92,RU,2021-09-09 11:25:26
402,Vilhena,-12.7406,-60.1458,75.42,73,40,8.05,BR,2021-09-09 11:25:26
403,Pochinki,54.6988,44.8668,65.5,62,99,18.72,RU,2021-09-09 11:25:27
404,Oistins,13.0667,-59.5333,84.29,74,40,19.57,BB,2021-09-09 11:25:27
405,Itaituba,-4.2761,-55.9836,80.76,83,20,0.0,BR,2021-09-09 11:25:27
406,Igarka,67.4667,86.5833,47.16,97,100,8.55,RU,2021-09-09 11:25:28
407,Sao Mateus,-18.7161,-39.8589,73.56,79,83,5.95,BR,2021-09-09 11:25:28
408,Sokoto,13.0609,5.239,89.65,47,80,9.98,NG,2021-09-09 11:25:28
409,The Valley,18.217,-63.0578,86.09,83,40,6.91,AI,2021-09-09 11:25:29
410,Beitbridge,-22.2167,30.0,73.0,57,96,13.06,ZW,2021-09-09 11:25:29
411,Banepa,27.6298,85.5214,71.92,88,75,5.75,NP,2021-09-09 11:25:29
412,Gander,48.9682,-54.5906,55.53,94,20,4.61,CA,2021-09-09 11:21:27
413,Sorland,67.667,12.6934,51.66,73,86,12.21,NO,2021-09-09 11:22:13
414,Saldanha,-33.0117,17.9442,86.05,35,71,14.5,ZA,2021-09-09 11:25:30
415,Kapoeta,4.7717,33.5903,72.81,82,100,9.28,SS,2021-09-09 11:25:30
416,Ngaoundere,7.3167,13.5833,79.27,60,63,4.7,CM,2021-09-09 11:25:31
417,Luba,3.4568,8.5547,85.89,81,68,3.22,GQ,2021-09-09 11:25:31
418,Porto Empedocle,37.2934,13.5264,78.24,56,89,8.9,IT,2021-09-09 11:25:31
419,Mahanoro,-19.9,48.8,75.99,63,0,9.8,MG,2021-09-09 11:25:32
420,Salinas,36.6777,-121.6555,70.97,86,20,6.91,US,2021-09-09 11:22:33
421,Nicoya,10.1483,-85.452,73.85,95,100,1.1,CR,2021-09-09 11:25:32
422,Kasongo,-4.45,26.6667,99.93,24,80,2.59,CD,2021-09-09 11:25:33
423,Jaguaribe,-5.8906,-38.6219,81.45,47,6,6.49,BR,2021-09-09 11:25:33
424,Lamu,-2.2717,40.902,81.0,68,48,15.55,KE,2021-09-09 11:25:33
425,Bull Savanna,17.8868,-77.5902,75.51,87,32,8.32,JM,2021-09-09 11:25:34
426,Ratnagiri,16.9833,73.3,80.87,86,96,15.7,IN,2021-09-09 11:25:34
427,Londonderry,54.9981,-7.3093,64.13,94,90,2.3,GB,2021-09-09 11:25:35
428,Sofiyivka,48.0493,33.8746,75.36,22,5,1.01,UA,2021-09-09 11:25:35
429,Tromso,69.6496,18.957,48.85,87,75,4.61,NO,2021-09-09 11:25:35
430,Kraslava,55.8951,27.168,71.6,49,57,9.98,LV,2021-09-09 11:25:36
431,Isiro,2.7739,27.616,82.56,58,68,5.08,CD,2021-09-09 11:25:36
432,Tokmak,47.2514,35.7058,75.97,21,1,4.25,UA,2021-09-09 11:25:37
433,Kashi,39.4547,75.9797,90.61,12,0,8.95,CN,2021-09-09 11:25:37
434,Muravlenko,63.7898,74.523,53.26,40,58,2.24,RU,2021-09-09 11:25:37
435,Ipojuca,-8.3989,-35.0639,76.91,70,79,7.81,BR,2021-09-09 11:22:45
436,Yoro,15.1333,-87.1333,66.99,93,97,1.86,HN,2021-09-09 11:25:38
437,Curuca,-0.7289,-47.8481,80.69,75,50,6.46,BR,2021-09-09 11:25:38
438,Businga,3.3333,20.8833,95.43,38,83,1.95,CD,2021-09-09 11:25:38
439,Fort-Shevchenko,44.5086,50.263,68.43,25,86,3.98,KZ,2021-09-09 11:25:39
440,Krasnoselkup,65.7,82.4667,46.15,88,100,11.9,RU,2021-09-09 11:25:39
441,Matara,5.9485,80.5353,83.97,74,53,12.59,LK,2021-09-09 11:25:40
442,Richards Bay,-28.783,32.0377,71.71,62,27,8.59,ZA,2021-09-09 11:25:40
443,Mandal,25.45,74.5667,88.21,60,86,5.95,IN,2021-09-09 11:25:40
444,Opochka,56.7105,28.6617,69.67,57,89,10.45,RU,2021-09-09 11:25:41
445,Ferkessedougou,9.6,-5.2,78.93,77,98,7.43,CI,2021-09-09 11:25:41
446,Benguela,-12.5763,13.4055,79.03,66,64,7.7,AO,2021-09-09 11:25:41
447,Agadez,19.75,10.25,103.21,12,0,12.66,NE,2021-09-09 11:25:42
448,Grenville,12.1167,-61.6167,82.45,78,100,16.42,GD,2021-09-09 11:25:42
449,Kulhudhuffushi,6.6221,73.07,82.99,71,32,9.93,MV,2021-09-09 11:21:16
450,Gayny,60.3071,54.3241,51.51,93,100,9.51,RU,2021-09-09 11:25:43
451,Fruitville,27.3298,-82.4576,84.15,74,40,1.99,US,2021-09-09 11:25:43
452,Pangody,65.85,74.4859,53.42,37,49,7.96,RU,2021-09-09 11:25:43
453,Taltal,-25.4,-70.4833,53.83,80,29,0.89,CL,2021-09-09 11:25:44
454,Mirabad,30.4362,61.8383,97.84,10,6,24.16,AF,2021-09-09 11:25:44
455,Zeliezovce,48.0508,18.6542,80.78,26,4,9.15,SK,2021-09-09 11:25:44
456,Carrollton,32.9537,-96.8903,72.28,58,1,5.75,US,2021-09-09 11:23:08
457,Mutis,6.2262,-77.4044,77.65,86,100,3.74,CO,2021-09-09 11:25:45
458,Panaba,21.2833,-88.2667,73.76,97,42,4.72,MX,2021-09-09 11:25:45
459,Havre-Saint-Pierre,50.2334,-63.5986,61.16,88,90,6.91,CA,2021-09-09 11:25:46
460,Jagannathpur,22.2333,85.65,82.85,77,94,1.16,IN,2021-09-09 11:25:46
461,Eyl,7.9803,49.8164,91.99,44,60,26.24,SO,2021-09-09 11:25:46
462,Synya,65.3718,58.0387,44.83,92,100,9.62,RU,2021-09-09 11:25:47
463,Monteiro,-7.8894,-37.12,74.12,52,13,6.46,BR,2021-09-09 11:25:47
464,Sabirabad,40.0095,48.4752,76.19,38,100,6.38,AZ,2021-09-09 11:25:47
465,Fort-De-France,14.6089,-61.0733,80.55,83,20,3.44,MQ,2021-09-09 11:25:48
466,San Andres,12.5847,-81.7006,80.62,89,40,4.61,CO,2021-09-09 11:25:48
467,Tandil,-37.3217,-59.1332,51.31,99,100,21.0,AR,2021-09-09 11:25:49
468,Pila,53.1515,16.7378,77.67,29,24,13.8,PL,2021-09-09 11:25:49
469,Saint-Medard-En-Jalles,44.8969,-0.7214,73.31,79,75,5.75,FR,2021-09-09 11:25:49
470,Kharitonovo,61.4009,47.4978,53.28,74,79,12.28,RU,2021-09-09 11:25:50
471,Brownsburg,39.8434,-86.3978,58.98,82,20,0.0,US,2021-09-09 11:25:50
472,Darnah,32.767,22.6367,77.99,62,29,14.29,LY,2021-09-09 11:25:50
473,Karatau,43.1667,70.4667,75.43,28,0,10.87,KZ,2021-09-09 11:25:51
474,Juazeirinho,-6.8167,-38.05,79.54,50,7,3.24,BR,2021-09-09 11:25:51
475,Nardaran,40.5561,50.0056,73.04,53,0,20.71,AZ,2021-09-09 11:25:51
476,Minab,27.1467,57.0801,99.9,22,76,13.56,IR,2021-09-09 11:25:52
477,Ostrovnoy,68.0531,39.5131,42.13,88,100,19.37,RU,2021-09-09 11:25:52
478,Sangmelima,2.9333,11.9833,87.6,47,54,2.77,CM,2021-09-09 11:25:52
479,Van,38.4924,43.3831,74.55,50,20,11.5,TR,2021-09-09 11:25:53
480,Krylovskaya,46.3194,39.9711,74.23,28,0,12.5,RU,2021-09-09 11:25:53
481,Ouesso,1.6136,16.0517,95.13,40,49,2.19,CG,2021-09-09 11:23:17
482,Lucea,18.451,-78.1736,78.66,80,15,5.57,JM,2021-09-09 11:25:54
483,Jesup,31.6074,-81.8854,76.71,88,90,0.0,US,2021-09-09 11:25:19
484,Trincomalee,8.5711,81.2335,85.77,71,45,12.86,LK,2021-09-09 11:25:54
485,Ormara,25.2088,64.6357,80.62,88,100,15.52,PK,2021-09-09 11:25:55
486,Bilma,18.6853,12.9164,107.08,8,6,15.7,NE,2021-09-09 11:25:55
487,Eydhafushi,5.1033,73.0708,83.21,70,64,8.28,MV,2021-09-09 11:25:55
488,Savinka,50.0785,47.0994,72.57,26,11,17.85,RU,2021-09-09 11:25:56
489,Areosa,41.7178,-8.8571,76.24,78,87,7.05,PT,2021-09-09 11:25:56
490,Sao Francisco De Paula,-29.4481,-50.5836,55.47,92,72,6.58,BR,2021-09-09 11:25:57
491,Santa Elena,-2.2333,-80.85,69.13,83,100,6.78,EC,2021-09-09 11:25:57
492,Kaduy,59.2,37.15,64.44,57,42,11.72,RU,2021-09-09 11:25:58
493,Bhimunipatnam,17.8833,83.4333,90.91,73,100,8.34,IN,2021-09-09 11:25:58
494,Tubinskiy,52.8892,58.2225,57.34,40,91,21.21,RU,2021-09-09 11:25:58
495,Porto Belo,-27.1578,-48.5531,69.78,96,100,5.73,BR,2021-09-09 11:22:26
496,Caceres,39.522,-6.3748,75.79,49,36,8.81,ES,2021-09-09 11:24:56
497,Sao Felix Do Xingu,-6.6447,-51.995,77.92,75,58,1.7,BR,2021-09-09 11:25:59
498,Catamarca,-28.4696,-65.7852,47.77,68,0,1.99,AR,2021-09-09 11:25:59
499,Maiduguri,11.8464,13.1603,91.4,45,94,3.36,NG,2021-09-09 11:26:00
500,Shache,38.4167,77.2406,93.6,8,0,7.63,CN,2021-09-09 11:26:00
501,Prieska,-29.6641,22.7474,82.15,16,3,11.25,ZA,2021-09-09 11:26:01
502,Bengkulu,-3.8004,102.2655,78.58,82,44,10.45,ID,2021-09-09 11:26:01
503,San Clemente,33.427,-117.612,77.04,93,75,2.66,US,2021-09-09 11:23:06
504,Andria,41.2306,16.2909,79.79,44,17,9.42,IT,2021-09-09 11:26:01
505,Ustye,59.6304,39.736,62.44,53,25,14.16,RU,2021-09-09 11:26:02
506,Sarakhs,36.5449,61.1577,91.54,21,0,13.8,IR,2021-09-09 11:26:02
507,Naryan-Mar,67.6713,53.087,48.11,72,100,5.46,RU,2021-09-09 11:26:02
508,Alausi,-2.2,-78.8333,45.66,83,75,7.92,EC,2021-09-09 11:26:03
509,Presidencia Roque Saenz Pena,-26.7852,-60.4388,50.31,70,0,6.13,AR,2021-09-09 11:26:03
510,Oranjestad,12.524,-70.027,82.35,83,20,13.8,AW,2021-09-09 11:26:03
511,Camacha,33.0833,-16.3333,76.53,69,40,9.22,PT,2021-09-09 11:26:04
512,Anloga,5.7947,0.8973,84.42,76,66,9.08,GH,2021-09-09 11:26:04
513,Grand Gaube,-20.0064,57.6608,73.38,72,35,8.99,MU,2021-09-09 11:26:05
514,Buchanan,5.8808,-10.0467,82.2,75,79,6.29,LR,2021-09-09 11:26:05
515,Tres Lagoas,-20.7511,-51.6783,76.89,67,86,13.31,BR,2021-09-09 11:23:45
516,Pervomaysk,48.0443,30.8507,76.42,23,1,2.8,UA,2021-09-09 11:26:06
517,Astaneh-Ye Ashrafiyeh,37.2596,49.9444,67.93,75,97,9.78,IR,2021-09-09 11:26:06
518,Abu Dhabi,24.4667,54.3667,102.31,50,0,11.5,AE,2021-09-09 11:25:38
519,Iranshahr,27.2025,60.6848,107.94,9,65,11.5,IR,2021-09-09 11:26:07
520,Qaqortoq,60.7167,-46.0333,45.1,81,41,4.72,GL,2021-09-09 11:26:07
521,Abu Kamal,34.4506,40.9171,97.83,16,0,18.39,SY,2021-09-09 11:26:07
522,Kutum,14.2,24.6667,90.41,23,57,16.4,SD,2021-09-09 11:26:08
523,Mocuba,-16.8392,36.9856,92.03,25,0,6.42,MZ,2021-09-09 11:26:08
524,Kaniama,-7.5667,24.1833,97.74,23,9,3.36,CD,2021-09-09 11:26:09
525,Vardo,70.3705,31.1107,46.38,81,75,17.27,NO,2021-09-09 11:26:09
526,Arlit,18.7369,7.3853,100.9,20,40,4.38,NE,2021-09-09 11:26:09
527,Mahibadhoo,3.7833,72.9667,83.21,67,13,6.2,MV,2021-09-09 11:26:10
528,Galle,6.0367,80.217,82.22,78,35,12.53,LK,2021-09-09 11:26:10
529,Hualmay,-11.0964,-77.6139,60.66,90,95,7.94,PE,2021-09-09 11:26:10
530,Raudeberg,61.9875,5.1352,60.4,97,100,4.41,NO,2021-09-09 11:26:11
531,Wittingen,52.7269,10.7361,82.02,44,13,8.19,DE,2021-09-09 11:26:11
532,Olinda,-8.0089,-34.8553,76.73,78,40,6.91,BR,2021-09-09 11:22:46
533,Bubaque,11.2833,-15.8333,81.34,76,10,7.63,GW,2021-09-09 11:26:11
534,Oranjemund,-28.55,16.4333,73.85,39,39,8.86,NA,2021-09-09 11:26:12
535,San Juan,-31.5375,-68.5364,44.98,71,0,3.24,AR,2021-09-09 11:26:12
536,Freetown,8.484,-13.2299,82.53,76,71,7.85,SL,2021-09-09 11:26:12
537,Novo Oriente,-5.5344,-40.7742,79.11,59,40,9.1,BR,2021-09-09 11:26:13
538,Onda,39.9667,-0.25,85.39,69,71,5.41,ES,2021-09-09 11:26:13
539,Carutapera,-1.195,-46.02,81.86,71,28,8.97,BR,2021-09-09 11:26:14
540,Komatipoort,-25.4332,31.9548,82.56,36,0,6.26,ZA,2021-09-09 11:26:14
541,Isabela,6.7085,121.9711,78.76,83,100,4.52,PH,2021-09-09 11:26:14
542,Cozumel,20.5083,-86.9458,80.58,84,42,6.82,MX,2021-09-09 11:26:15
543,Bagula,23.3167,88.65,90.34,64,67,4.05,IN,2021-09-09 11:26:15
544,Ambatofinandrahana,-20.55,46.8,81.43,19,0,5.84,MG,2021-09-09 11:26:15
545,Chalons-En-Champagne,48.9539,4.3672,76.23,83,92,9.28,FR,2021-09-09 11:26:16
546,Ushtobe,45.2514,77.9838,77.79,32,69,16.93,KZ,2021-09-09 11:26:16
547,Pinega,64.7001,43.3936,48.49,62,72,11.88,RU,2021-09-09 11:26:17
548,Juba,4.8517,31.5825,76.15,78,99,8.88,SS,2021-09-09 11:26:17
549,Kirando,-7.4167,30.6,84.42,44,51,9.53,TZ,2021-09-09 11:26:17
550,Caxito,-8.5785,13.6643,77.65,34,27,2.89,AO,2021-09-09 11:26:18
551,Guerande,47.3291,-2.4283,71.96,81,40,13.96,FR,2021-09-09 11:26:18
552,Mitu,1.1983,-70.1733,69.69,94,92,2.24,CO,2021-09-09 11:24:12
553,Jacksonville Beach,30.2947,-81.3931,76.12,90,90,3.0,US,2021-09-09 11:26:18
554,Wageningen,51.9667,5.6667,81.09,65,90,5.75,NL,2021-09-09 11:26:19
555,Sawakin,19.1059,37.3321,98.56,39,20,10.47,SD,2021-09-09 11:26:19
556,Martinsville,36.6915,-79.8725,69.66,77,90,4.61,US,2021-09-09 11:25:13
557,Krynychky,48.3755,34.467,77.52,22,7,1.32,UA,2021-09-09 11:26:20
558,Maromitsa,59.8683,48.0123,55.33,77,53,12.44,RU,2021-09-09 11:26:20
559,Korsakovo,53.2677,37.3569,71.44,42,88,17.38,RU,2021-09-09 11:26:20
560,Kvareli,41.9524,45.8151,65.41,78,99,3.85,GE,2021-09-09 11:26:21
561,Dalvik,65.9702,-18.5286,53.53,55,35,7.61,IS,2021-09-09 11:26:21
562,Segezha,63.7415,34.3222,56.62,49,66,12.82,RU,2021-09-09 11:26:21
563,Beloha,-25.1667,45.05,80.89,38,0,13.73,MG,2021-09-09 11:26:22
564,Petrokamenskoye,57.716,60.6484,51.55,82,99,12.75,RU,2021-09-09 11:26:22
565,Odesskoye,54.2111,72.9651,56.75,53,100,12.1,RU,2021-09-09 11:26:22
566,Mezen,65.8522,44.24,45.07,81,93,12.35,RU,2021-09-09 11:26:23
567,Maputo,-25.9653,32.5892,76.68,69,75,1.99,MZ,2021-09-09 11:24:30
568,Boo,59.3333,18.2833,71.98,59,0,9.22,SE,2021-09-09 11:26:23
569,Tutoia,-2.7619,-42.2744,81.07,70,85,12.77,BR,2021-09-09 11:26:24
570,Montepuez,-13.1256,38.9997,89.62,23,11,7.99,MZ,2021-09-09 11:26:24
571,Tyulgan,52.3405,56.166,64.11,30,97,22.93,RU,2021-09-09 11:26:24
